,Category 0,Category 1,Category 2,Category 3,Latitude,Location,Longitude,Name,Out of Business,Price,Rating,Review Count,Happiness Score
0,American (Traditional),Latin American,,,33.0405953292575,"Plano, TX",-96.7507037102425,Lily's Cafe,False,$,4.5,140,72.3
1,Cuban,,,,33.0404645,"Plano, TX",-96.7338833,The Latin Pig,False,$$,4.0,667,71.86
2,Breakfast & Brunch,Cafes,American (Traditional),,33.0405038,"Plano, TX",-96.7336249,First Watch,False,$$,4.0,248,71.81
3,Halal,Mediterranean,,,33.0703699,"Plano, TX",-96.77256,The Gyro Shop,False,$,4.5,288,71.17
4,Thai,,,,33.05562,"Plano, TX",-96.77307,Saucy's Thai & Pho,False,$$,4.5,208,69.74
5,Tex-Mex,Tacos,,,33.08661,"Plano, TX",-96.77108,Rusty Taco,False,$,4.0,464,69.57
6,Pizza,Italian,,,33.0738093194451,"Plano, TX",-96.7711773927292,Ferrari's Pizzeria,False,$,4.5,194,69.3
7,Japanese,Sushi Bars,,,33.0555999844179,"Plano, TX",-96.7725858092309,Densetsu,False,$$,4.0,1214,68.9
8,Taiwanese,Chinese,Noodles,,33.0428,"Plano, TX",-96.77097,Bull Daddy Noodle Bistro,False,$,4.0,217,68.24
9,American (New),Wine Bars,,,33.05118,"Plano, TX",-96.77083,Sip & Savor,False,$$,4.0,111,67.53
10,Mexican,Tex-Mex,Breakfast & Brunch,,33.0750617,"Plano, TX",-96.7496149,Lita's La Mexicana,False,$$,4.0,168,67.38
11,Indian,,,,33.08504,"Plano, TX",-96.77339,Andhra Cafe,False,$,4.5,58,67.37
12,Sushi Bars,Japanese,,,33.0421,"Plano, TX",-96.73464,AKARI Japanese Restaurant,False,$$,4.5,172,67.18
13,Tex-Mex,Mexican,Latin American,,33.0705265046204,"Plano, TX",-96.7521306589996,Salsa Tex Mex,False,$$,4.0,265,67.16
14,Indian,,,,33.0709856498643,"Plano, TX",-96.7707239235385,Aroma Indian Cuisine,False,$$,4.0,206,66.97
15,Bakeries,Delis,Cupcakes,,33.0706,"Plano, TX",-96.75144,Millstone Bakery,False,$,4.5,117,66.77
16,Chinese,Seafood,Noodles,,33.0594881882246,"Plano, TX",-96.7329832689898,China Ocean,False,$,4.0,108,66.25
17,Breakfast & Brunch,Cafes,,,33.070143553405,"Plano, TX",-96.772840997709,Little Gus Cafe,False,$,3.5,187,66.01
18,Vietnamese,,,,33.056902,"Plano, TX",-96.772419,Pho Texas,False,$,4.0,111,65.79
19,Burgers,Sandwiches,,,33.0428927343057,"Plano, TX",-96.7338865556391,Olive Burger - Plano,False,$,4.0,174,65.48
20,Chinese,Singaporean,Malaysian,,33.0420402597803,"Plano, TX",-96.7342822890388,Lion City Chinese Cafe,False,$,4.0,208,65.07
21,Italian,Pizza,,,33.0597,"Plano, TX",-96.73189,Joe's Pasta & Pizza,False,$,4.0,149,65.02
22,Dim Sum,Cantonese,,,33.07135,"Plano, TX",-96.7706199,Zhang's Kitchen,False,$$,3.5,131,64.99
23,Pizza,,,,33.0750582609194,"Plano, TX",-96.7495774850249,ZaLat Pizza,False,$$,4.0,64,64.96
24,Vietnamese,,,,33.040326,"Plano, TX",-96.753801,Saigon Street Viet Cuisine,False,$$,4.0,163,64.9
25,Lebanese,Mediterranean,Persian/Iranian,,33.08661,"Plano, TX",-96.77108,Lebanese Grill,False,$$,4.0,114,64.82
26,Chicken Wings,Burgers,,,33.041471,"Plano, TX",-96.755211,Wing Daddy's Sauce House - Plano,False,$$,3.5,130,64.54
27,Szechuan,Hot Pot,,,33.0555022,"Plano, TX",-96.7730468,Squares Hot Pot,False,$$,4.0,47,64.51
28,Breakfast & Brunch,Bakeries,Caterers,,33.0429525500428,"Plano, TX",-96.7338497067236,Kolache Factory,False,$,4.5,12,64.21
29,Pizza,Italian,,,33.03988,"Plano, TX",-96.7558529,Covino's Pasta & Pizza,False,$$,4.0,196,64.17
30,Modern European,,,,33.0702018737793,"Plano, TX",-96.7707977294922,Euro Deli Too,False,$,4.5,17,64.07
31,Indian,,,,33.04011,"Plano, TX",-96.73478,Wild Mirchi Indian Grill,False,$$,4.0,176,64.0
32,Indian,Halal,Pakistani,,33.05764,"Plano, TX",-96.76862,Plano Village Restaurant,False,$,4.0,16,63.83
33,Chinese,Halal,Breakfast & Brunch,,33.05811,"Plano, TX",-96.75192,Crescent Moon,False,$$,3.5,107,63.82
34,Coffee & Tea,Pretzels,Cafes,,33.0399391,"Plano, TX",-96.7341858,Dubs Tea N Eats,False,$,5.0,40,63.5
35,Chicken Wings,Halal,,,33.0585851,"Plano, TX",-96.7318451,Dallas Kabob House,False,$,3.5,78,63.43
36,Modern European,Mediterranean,,,33.0578994750977,"Plano, TX",-96.7719497680664,King Kabob,False,$$,3.5,79,63.16
37,Vietnamese,Soup,,,33.03945,"Plano, TX",-96.7525,Pho My,False,$,4.0,26,62.82
38,Fast Food,,,,33.05792,"Plano, TX",-96.7698,Chick-fil-A,False,$,4.5,55,62.8
39,Indian,Vegetarian,,,33.03945,"Plano, TX",-96.7525,Kesari,False,$,4.0,200,62.7
40,Pizza,Buffets,,,33.0407954549294,"Plano, TX",-96.7357746742877,Mama's Pizza,False,$,4.0,165,62.41
41,Chinese,,,,33.069527,"Plano, TX",-96.775036,369 BBQ,False,$$,3.5,178,62.35
42,Chinese,,,,33.04188,"Plano, TX",-96.751816,East Wall Chinese Cuisine,False,$$,3.5,42,62.31
43,Indian,Pakistani,,,33.0578839950276,"Plano, TX",-96.7722589150071,7 Spice Halal Indian & Pakistani Cuisine,False,$,4.0,42,62.3
44,Japanese,Sushi Bars,,,33.0703699,"Plano, TX",-96.77256,Sushi Go,False,$$,4.5,41,61.96
45,Sushi Bars,Japanese,Noodles,,33.03869,"Plano, TX",-96.73215,Sushi Sakana,False,$$,4.5,165,61.94
46,Chinese,Asian Fusion,,,33.0397414690454,"Plano, TX",-96.7541600185242,Lucky City,False,$$,3.5,121,61.86
47,Breakfast & Brunch,Burgers,Hawaiian,,33.7060337,"Irvine, CA",-117.7866837,Stacks Pancake House,False,$$,4.0,1080,61.83
48,Ramen,,,,33.7050469654707,"Irvine, CA",-117.785043623797,Kitakata Ramen Ban Nai - Irvine,False,$$,4.0,81,61.73
49,Burgers,American (Traditional),Breakfast & Brunch,,33.6832606193866,"Irvine, CA",-117.813130966795,The Cut,False,$$,4.5,693,61.73
50,Chinese,Noodles,Soup,,33.6805,"Irvine, CA",-117.7785,Noodology,False,$$,4.0,463,61.68
51,American (New),Burgers,,,33.6687986,"Irvine, CA",-117.7867064,The Stand,False,$$,4.5,564,61.22
52,American (New),Cocktail Bars,Breakfast & Brunch,,33.6547764858565,"Irvine, CA",-117.780172175428,Two Left Forks,False,$$,4.0,385,61.16
53,Seafood,Bars,Live/Raw Food,,33.7062108563672,"Irvine, CA",-117.785603870561,EMC Seafood & Raw Bar,False,$$,4.0,1617,61.11
54,Sandwiches,Breakfast & Brunch,Waffles,,33.7054936328288,"Irvine, CA",-117.785671476087,Bruxie,False,$,4.0,1436,61.05
55,Chinese,Taiwanese,Noodles,,33.688076,"Irvine, CA",-117.771562,A & J Restaurant,False,$,4.0,1796,60.99
56,Taiwanese,Noodles,Soup,,33.6810747,"Irvine, CA",-117.7788766,Kingchops,False,$$,4.0,405,60.96
57,American (New),Salad,Sandwiches,,33.684809,"Irvine, CA",-117.810616,Urban Plates,False,$$,4.0,1621,60.96
58,Seafood,Fish & Chips,,,33.6842352575347,"Irvine, CA",-117.809287082414,California Fish Grill,False,$$,4.0,2587,60.96
59,Breakfast & Brunch,Burgers,Sandwiches,,33.65741,"Irvine, CA",-117.76996,S'wich Bistro,False,$$,4.5,313,60.9
60,Mediterranean,,,,33.685125,"Irvine, CA",-117.8106676,CAVA,False,$$,4.0,624,60.83
61,Breakfast & Brunch,Burgers,Sandwiches,,33.6626888476443,"Irvine, CA",-117.773647718132,W Cafe,False,$$,4.5,82,60.33
62,Korean,Barbeque,,,33.7080399,"Irvine, CA",-117.78377,Kang Ho Dong Baekjeong,False,$$,4.5,1177,60.14
63,Korean,Barbeque,Seafood,,33.66847,"Irvine, CA",-117.78542,I Can Barbecue,False,$$,4.0,725,60.11
64,Hot Dogs,Burgers,American (Traditional),,33.7060931279883,"Irvine, CA",-117.787043342085,Burntzilla,False,$,4.0,1177,60.1
65,American (Traditional),Barbeque,Salad,,33.68551,"Irvine, CA",-117.81124,Stonefire Grill,False,$$,4.0,1157,60.08
66,Vietnamese,Noodles,Bubble Tea,,33.684108,"Irvine, CA",-117.811898,Ha Long Vietnamese Cuisine,False,$,4.0,755,60.07
67,Korean,,,,33.7065139690351,"Irvine, CA",-117.78377515196,Chan Chan Food House,False,$$,4.0,374,59.82
68,Sushi Bars,Japanese,,,33.6550170496394,"Irvine, CA",-117.77772164418,O Fine Japanese Cuisine,False,$$,4.0,869,59.81
69,Bagels,Sandwiches,,,33.705049,"Irvine, CA",-117.785033,East Coast Bagel,False,$,4.5,517,59.71
70,Vietnamese,Noodles,,,33.6811382060949,"Irvine, CA",-117.804737276721,Pho Ba Co,False,$$,4.0,1174,59.58
71,Japanese,Hot Pot,,,33.6900662,"Irvine, CA",-117.7707037,House of Shabu Shabu,False,$$,4.0,2174,59.53
72,Delis,American (New),Sandwiches,,33.6773174,"Irvine, CA",-117.7984133,Sessions West Coast Deli,False,$$,4.0,140,59.51
73,Japanese,Hot Pot,,,33.680972,"Irvine, CA",-117.77883,Miyabi Shabu and Grill,False,$$,4.0,820,59.47
74,Chinese,Korean,Chicken Wings,,33.6584149,"Irvine, CA",-117.803118,Chun Ha Jjambbong / Two Ddak Two Ddak,False,$,4.0,94,59.25
75,Burgers,Ice Cream & Frozen Yogurt,Hot Dogs,,33.671683,"Irvine, CA",-117.789418,"MOOYAH Burgers, Fries & Shakes",False,$,4.0,469,58.63
76,Ice Cream & Frozen Yogurt,Waffles,,,33.6892710671441,"Irvine, CA",-117.770197739192,Honeymee,False,$,3.5,366,58.58
77,Korean,Soup,Noodles,,33.695969,"Irvine, CA",-117.764616,Tang 190,False,$$,4.0,781,58.54
78,Korean,Barbeque,,,33.6967263159132,"Irvine, CA",-117.798274755478,All That Barbecue,False,$$,4.0,1937,58.46
79,Korean,,,,33.7049539621318,"Irvine, CA",-117.772674411535,Seoul Haus,False,$$,4.0,319,58.36
80,Hawaiian,Breakfast & Brunch,,,33.695805,"Irvine, CA",-117.764777,Da Luau Hawaiian Grill,False,$,3.5,500,58.2
81,Pizza,Italian,Salad,,33.668647,"Irvine, CA",-117.7850638,Square One Pizza Cafe,False,$$,4.0,441,58.12
82,Taiwanese,Hot Pot,Comfort Food,,33.7072942946735,"Irvine, CA",-117.78256935582,Boiling Point,False,$$,3.5,1775,58.04
83,Peruvian,,,,33.657314,"Irvine, CA",-117.769778,Inka's Restaurant,False,$$,4.0,347,57.72
84,Mediterranean,American (Traditional),Middle Eastern,,33.67107,"Irvine, CA",-117.78909,Olives Branch Express,False,$$,4.5,206,57.71
85,Ramen,Noodles,,,33.70676,"Irvine, CA",-117.78337,Hokkaido Ramen Santouka,False,$$,4.0,602,57.55
86,Poke,Salad,Sushi Bars,,33.6957037370608,"Irvine, CA",-117.799307587801,Pokeworks,False,$$,4.0,507,57.45
87,Taiwanese,Breakfast & Brunch,Chinese,,33.6812348985666,"Irvine, CA",-117.778315571212,Four Sea Restaurant,False,$,3.5,368,57.25
88,Chinese,Noodles,,,33.6841768,"Irvine, CA",-117.8119836,Capital Noodle Bar,False,$$,3.5,693,57.23
89,Asian Fusion,Cantonese,,,33.697422,"Irvine, CA",-117.798979,Tasty Garden,False,$$,3.0,622,57.1
90,Halal,Mediterranean,,,33.695844,"Irvine, CA",-117.76469,Olive Oil Mediterranean Grill,False,$$,4.0,294,57.09
91,Sushi Bars,Japanese,,,33.6716482930377,"Irvine, CA",-117.789346016944,Crazy Rock'N Sushi,False,$$,4.0,407,57.0
92,American (New),Wine Bars,,,43.07421,"Madison, WI",-89.38627,Graft,False,$$$,4.5,356,56.85
93,American (New),,,,43.0750940450292,"Madison, WI",-89.3820914576721,Graze,False,$$,4.0,1083,56.83
94,American (Traditional),Breakfast & Brunch,Beer Bar,,43.0761862475496,"Madison, WI",-89.3837572171967,The Old Fashioned,False,$$,4.0,1738,56.49
95,American (New),Gastropubs,Breakfast & Brunch,,43.0768340202013,"Madison, WI",-89.3832337316105,Heritage Tavern,False,$$$,4.5,419,56.35
96,Breakfast & Brunch,,,,43.07394,"Madison, WI",-89.3815599,Marigold Kitchen,False,$$,4.0,597,56.34
97,French,,,,43.07822,"Madison, WI",-89.3709499,La Kitchenette,False,$$,4.5,83,56.21
98,Breakfast & Brunch,American (Traditional),Donuts,,43.072731,"Madison, WI",-89.393353,Bassett Street Brunch Club,False,$$,4.0,528,56.17
99,Breakfast & Brunch,,,,43.0745169945835,"Madison, WI",-89.3899215012789,Short Stack Eatery,False,$$,4.0,422,56.02
100,Russian,Asian Fusion,,,43.074503,"Madison, WI",-89.394115,Paul's Pel'meni,False,$,4.5,429,55.97
101,Coffee & Tea,Breakfast & Brunch,Southern,,43.081653,"Madison, WI",-89.373548,Black Locust Cafe,False,$,4.5,105,55.94
102,Bars,American (Traditional),,,43.074727,"Madison, WI",-89.3815378,The Tipsy Cow,False,$$,4.0,406,55.61
103,French,Breakfast & Brunch,Bars,,43.0758619691491,"Madison, WI",-89.3746270098814,Sardine,False,$$,4.0,447,55.36
104,Coffee & Tea,Creperies,,,43.077237,"Madison, WI",-89.383889,Bradbury's,False,$,4.5,322,55.34
105,Breakfast & Brunch,,,,43.06743,"Madison, WI",-89.41298,Mickies Dairy Bar,False,$,4.0,315,55.33
106,Italian,Wine Bars,Sandwiches,,43.0734362650751,"Madison, WI",-89.386740792611,Casetta Kitchen and Counter,False,$$,4.5,56,55.2
107,Cocktail Bars,Wine Bars,American (New),,43.07427,"Madison, WI",-89.38101,Merchant,False,$$,4.0,539,54.93
108,Italian,Breakfast & Brunch,Desserts,,43.074546,"Madison, WI",-89.387355,Cento,False,$$$,4.0,299,54.9
109,Coffee & Tea,Breakfast & Brunch,Sandwiches,,43.0681572244919,"Madison, WI",-89.3949047960586,Porter,False,$,4.0,64,54.55
110,Middle Eastern,,,,43.06763,"Madison, WI",-89.41049,Noosh,False,$$,4.5,18,54.4
111,Hot Dogs,Burgers,Sandwiches,,43.06787,"Madison, WI",-89.40166,Sweet Home Wisconsin,False,$$,4.5,42,54.33
112,Burgers,Cocktail Bars,Breakfast & Brunch,,43.0735626220703,"Madison, WI",-89.3824691772461,DLUX,False,$$,4.0,441,54.13
113,Burgers,Vegan,Vegetarian,,43.07285,"Madison, WI",-89.3955299,Dotty Dumpling's Dowry,False,$$,4.0,517,54.13
114,Greek,Mediterranean,,,43.07468,"Madison, WI",-89.39631,Mediterranean Cafe,False,$,4.5,187,53.96
115,Hot Pot,Chinese,,,43.0529651478213,"Madison, WI",-89.3962534169718,Double 10 Mini Hot Pot,False,$$,4.5,157,53.5
116,Chinese,,,,43.07468,"Madison, WI",-89.39393,Chen's Dumpling House,False,$,4.0,49,53.29
117,Bakeries,Breakfast & Brunch,Patisserie/Cake Shop,,43.0800590515137,"Madison, WI",-89.3694076538086,Madison Sourdough,False,$$,4.5,249,53.19
118,Steakhouses,Bars,Seafood,,43.07243,"Madison, WI",-89.38434,Tornado Steak House,False,$$$,4.0,505,53.03
119,Mediterranean,Food Trucks,,,43.1016722348811,"Madison, WI",-89.364595413208,Banzo,False,$,4.5,334,52.76
120,Spanish,Tapas Bars,Basque,,43.0743805807623,"Madison, WI",-89.3903519958258,Estrellón,False,$$$,4.0,155,52.66
121,Italian,,,,43.0741091911494,"Madison, WI",-89.3793041899978,Osteria Papavero,False,$$,4.0,176,52.59
122,Street Vendors,Sandwiches,Salad,,43.0740986905559,"Madison, WI",-89.3828237056732,Good Food,False,$,5.0,74,52.41
123,Diners,Breakfast & Brunch,,,43.060073,"Madison, WI",-89.400418,The Curve,False,$,4.0,71,52.29
124,Wine Bars,Whiskey Bars,Tapas Bars,,43.07668,"Madison, WI",-89.3839,Boar & Barrel,False,$$$,4.0,26,51.99
125,Ramen,,,,43.0747543098252,"Madison, WI",-89.38133507967,Morris Ramen,False,$$,4.0,175,51.96
126,Ramen,,,,43.0724311441094,"Madison, WI",-89.3957334318544,Strings Ramen,False,$$,4.0,98,51.94
127,Sushi Bars,Desserts,Cocktail Bars,,43.07284,"Madison, WI",-89.38811,RED,False,$$,4.5,205,51.59
128,Tacos,Cocktail Bars,,,43.07264,"Madison, WI",-89.38398,Canteen,False,$$,4.0,180,51.5
129,Thai,Food Stands,,,43.0755641,"Madison, WI",-89.3974633,Luang Prabang,False,$,4.5,40,51.44
130,American (New),Breakfast & Brunch,Beer Bar,,43.08235,"Madison, WI",-89.3797,Forequarter,False,$$$,4.0,247,51.21
131,American (New),Bars,,,43.07551,"Madison, WI",-89.39565,Camp Trippalindee,False,$$,4.0,41,51.15
132,American (New),,,,43.07458,"Madison, WI",-89.38933,Fresco,False,$$$,4.0,199,51.14
133,Italian,,,,43.07742,"Madison, WI",-89.38156,Naples 15,False,$$$,4.0,216,50.98
134,American (Traditional),Pubs,Beer Bar,,43.07512,"Madison, WI",-89.39176,HopCat,False,$$,4.0,351,50.92
135,Belgian,Brasseries,Sandwiches,,43.06399,"Madison, WI",-89.418,Brasserie V,False,$$,4.0,329,50.55
136,Salad,Juice Bars & Smoothies,,,43.0746899,"Madison, WI",-89.39716,Forage Kitchen,False,$$,4.0,88,50.43
137,Bubble Tea,Fast Food,Pasta Shops,,37.5603344028298,"Fremont, CA",-122.010552883005,A Sack of Potatoes,False,$,4.0,45,50.31
138,American (Traditional),,,,37.5330543518066,"Fremont, CA",-122.001739501953,Country Way,False,$$,4.0,2089,49.97
139,Donuts,Breakfast & Brunch,Coffee & Tea,,37.559903868343,"Fremont, CA",-122.009873324027,Bun Appétit Donuts,False,$,4.5,262,49.94
140,Korean,Chicken Shop,,,37.5355733234144,"Fremont, CA",-121.998047903233,Vons Chicken,False,$$,4.0,56,49.79
141,Korean,Asian Fusion,Chicken Wings,,37.534781,"Fremont, CA",-121.96496,KA YuMi Diner,False,$$,4.0,479,49.77
142,Asian Fusion,Sushi Bars,Ramen,,37.5438591450212,"Fremont, CA",-121.981836226954,Sweet Garden,False,$,4.5,220,49.76
143,American (New),Burgers,Sandwiches,,37.52594,"Fremont, CA",-122.00612,Lazy Dog Restaurant & Bar,False,$$,4.0,399,49.56
144,Cafes,,,,37.5477599,"Fremont, CA",-121.98475,Bill's Cafe,False,$$,4.0,315,49.22
145,Middle Eastern,Juice Bars & Smoothies,,,37.5048876,"Fremont, CA",-121.9701053,Dish n' Dash,False,$$,4.5,578,48.86
146,Shanghainese,,,,37.550794,"Fremont, CA",-121.980952,Din Ding Dumpling House,False,$$,3.5,1051,48.75
147,Thai,,,,37.5505241,"Fremont, CA",-121.9793462,Sala Thai,False,$$,4.0,2103,48.56
148,Breakfast & Brunch,American (Traditional),Cocktail Bars,,37.5281665,"Fremont, CA",-122.0004433,Jack's Restaurant & Bar,False,$$,4.0,664,48.35
149,Creperies,Thai,Desserts,,37.5352719962764,"Fremont, CA",-121.9979869,Le Moose Crepe Cafe,False,$$,4.0,1156,48.08
150,Creperies,Cafes,Sandwiches,,37.553209,"Fremont, CA",-121.978229,Frodo Joe's Petit Cafe,False,$$,4.0,809,47.83
151,Cafes,Breakfast & Brunch,,,37.529682,"Fremont, CA",-121.982973,Cabrillo Park Café,False,$$,4.0,284,47.63
152,Coffee & Tea,Waffles,Italian,,37.518391,"Fremont, CA",-121.990183,Who's Tea,False,$$,4.0,237,47.57
153,Sushi Bars,Japanese,,,37.5495200924684,"Fremont, CA",-121.986431338286,Aniki's Sushi,False,$$,4.0,1933,47.19
154,Breakfast & Brunch,American (Traditional),,,37.561345,"Fremont, CA",-122.012155,Dino's Family Restaurant,False,$$,4.0,411,47.02
155,Thai,Laotian,,,37.522938,"Fremont, CA",-121.9572683,Green Champa Garden,False,$$,4.0,906,46.5
156,Afghan,Halal,Middle Eastern,,37.5326499,"Fremont, CA",-122.00221,Fremont Afghan Kabob,False,$$,4.0,556,46.32
157,Korean,Asian Fusion,Cocktail Bars,,37.51838,"Fremont, CA",-121.98959,Soo Ja Fusion Bistro,False,$$,4.0,191,45.81
158,American (Traditional),Breakfast & Brunch,Mexican,,37.5249889831235,"Fremont, CA",-122.004478613426,Wake Up America,False,$$,4.0,246,45.56
159,Chinese,Indian,Food Trucks,,37.5519,"Fremont, CA",-121.9849,MoMo CooK,False,$,4.5,83,45.48
160,Afghan,,,,37.5577268634313,"Fremont, CA",-122.006441241109,De Afghanan Cuisine,False,$$,4.0,1407,44.75
161,Seafood,Cajun/Creole,,,37.529907,"Fremont, CA",-121.983147,Cut The Crab,False,$$,3.5,504,44.7
162,Burmese,Asian Fusion,,,37.5320230270835,"Fremont, CA",-121.960181371967,Myanmar Tea Garden,False,$$,4.0,337,44.59
163,Mediterranean,Greek,,,37.5540318,"Fremont, CA",-121.984093,Yalla Mediterranean,False,$$,4.0,415,44.45
164,Sushi Bars,Japanese,Desserts,,37.5625444,"Fremont, CA",-122.0098005,Satomi Sushi,False,$$,4.0,2085,44.27
165,Chinese,Noodles,,,37.56291,"Fremont, CA",-122.01009,Shinry Lamian,False,$$,4.0,90,44.27
166,Chinese,,,,37.5231,"Fremont, CA",-122.00605,Good Fortune Chinese Restaurant,False,$$,5.0,88,44.17
167,Mexican,,,,37.5455496665296,"Fremont, CA",-121.980292253146,Taqueria Limon,False,$,4.0,330,44.05
168,Afghan,,,,37.54945,"Fremont, CA",-121.98637,Metropole Restaurant,False,$$,4.5,201,43.5
169,Venues & Event Spaces,American (Traditional),Filipino,,37.5587622,"Fremont, CA",-122.0077498,East Bay Cafe Depot,False,$,4.5,54,43.33
170,Fast Food,,,,37.5347190012435,"Fremont, CA",-122.000498196352,Chick-fil-A,False,$,3.5,389,42.85
171,Burmese,,,,37.5627098,"Fremont, CA",-122.0103073,Kyain Kyain,False,$,4.0,295,42.38
172,Ramen,Bubble Tea,,,37.5254118,"Fremont, CA",-121.9975735,Yugo Ramen,False,$$,4.0,352,42.22
173,Seafood,Salad,Bars,,37.5057997558153,"Fremont, CA",-121.970154670003,Market Broiler,False,$$,3.5,1331,41.86
174,Vietnamese,Soup,,,37.5460295554385,"Fremont, CA",-121.987163722515,Bistro Viet House,False,$,4.0,168,41.58
175,Ramen,,,,37.522306208341,"Fremont, CA",-122.004164541063,Cocolo Ramen,False,$$,4.0,30,41.4
176,Ramen,,,,37.56264,"Fremont, CA",-122.01499,Ramen Instant,False,$$,4.0,302,41.06
177,Korean,,,,37.5627406686544,"Fremont, CA",-122.009570896626,Gangnam Tofu House,False,$$,4.0,381,40.81
178,Mexican,,,,37.5502207491959,"Fremont, CA",-121.980063321538,Los Cabos,False,$,4.0,413,40.78
179,Shanghainese,,,,37.5193723223453,"Fremont, CA",-121.990044237496,I-Shanghai Delight,False,$$,3.5,347,39.68
180,Diners,Breakfast & Brunch,Burgers,,37.5367421269421,"Fremont, CA",-121.999751854211,Black Bear Diner,False,$$,3.5,511,39.48
181,Bubble Tea,Cafes,Shaved Ice,,37.56269,"Fremont, CA",-122.01509,Hot Love Cafe,False,$,4.5,95,29.19
182,Mediterranean,Tapas/Small Plates,Wine Bars,,33.680305,"Huntington Beach, CA",-118.005161,The Black Trumpet Bistro Tapas & Wine Bar,False,$$,4.5,810,
183,Breakfast & Brunch,American (New),,,33.6853215981096,"Huntington Beach, CA",-117.990534177944,Bread Crumb Ohana Cafe,False,$$,4.0,1070,
184,American (New),Tapas/Small Plates,Wine Bars,,33.69601,"Huntington Beach, CA",-117.98834,Heirloom a Modern Farmhouse,False,$$,4.5,89,
185,American (New),Bars,,,33.6719751,"Huntington Beach, CA",-117.9905885,Triple Crown Tavern,False,$$,5.0,97,
186,Breakfast & Brunch,Cafes,,,33.7152351,"Huntington Beach, CA",-118.0254,Cafe Cup,False,$,4.0,1064,
187,Coffee & Tea,Breakfast & Brunch,Cafes,,33.71626,"Huntington Beach, CA",-118.00246,Sweet Elle Café,False,$,4.5,837,
188,Seafood,Sandwiches,Fish & Chips,,33.6767007,"Huntington Beach, CA",-117.9883751,Slapfish,False,$$,4.0,2198,
189,Sandwiches,Caterers,,,33.71513,"Huntington Beach, CA",-117.9905,Subculture Extraordinary Sandwiches,False,$,4.5,1584,
190,Breakfast & Brunch,American (Traditional),,,33.7053506,"Huntington Beach, CA",-118.0062101,Park Bench Café,False,$$,4.0,513,
191,Burgers,Sports Bars,American (Traditional),,33.71429,"Huntington Beach, CA",-117.98953,Slater's 50/50 - Huntington Beach,False,$$,4.0,3287,
192,Italian,,,,33.7007943,"Huntington Beach, CA",-117.9893884,Mazara Trattoria,False,$$,4.5,472,
193,Thai,Vegan,Breakfast & Brunch,,33.69316,"Huntington Beach, CA",-117.98926,Munch Bistro - Thai With A Twist,False,$$,4.5,172,
194,Mexican,Comfort Food,,,33.70867,"Huntington Beach, CA",-117.9896,Holé Molé,False,$,4.0,508,
195,Juice Bars & Smoothies,Brazilian,Acai Bowls,,33.6734551,"Huntington Beach, CA",-117.9892724,"TASTE, Brazilian Style Gourmet",False,$$,4.5,158,
196,Cafes,Coffee & Tea,,,33.6635241090428,"Huntington Beach, CA",-118.004742110985,Sit Stay Cafe,False,$,4.5,238,
197,Sushi Bars,Ramen,Desserts,,33.716241,"Huntington Beach, CA",-117.999146,Huntington RAMEN,False,$$,4.0,562,
198,Japanese,,,,33.6876309,"Huntington Beach, CA",-117.9883441,IKEDA,False,$$,4.5,414,
199,Italian,Seafood,Pizza,,33.6767841,"Huntington Beach, CA",-117.9883751,Capones Italian Cucina,False,$$,4.5,572,
200,Italian,Party & Event Planning,,,33.66175,"Huntington Beach, CA",-117.9986,Cucina Alessa,False,$$,4.0,841,
201,Mexican,Breakfast & Brunch,,,33.6649578809738,"Huntington Beach, CA",-117.989351972938,Normita's Surf City Taco,False,$,4.5,588,
202,Beer Bar,Sandwiches,Cafes,,33.67619,"Huntington Beach, CA",-117.98806,Board & Brew - Huntington Beach,False,$,4.5,210,
203,Asian Fusion,Chinese,Sushi Bars,,33.6963197471391,"Huntington Beach, CA",-117.988179687697,NuVu Asian Taste,False,$$,4.5,227,
204,Mexican,Seafood,Breakfast & Brunch,,33.7199100891478,"Huntington Beach, CA",-118.00064489051,Achiote Grill,False,$,4.5,384,
205,Vegan,Sandwiches,Wraps,,33.7152859953738,"Huntington Beach, CA",-117.990486206607,Vegan Nirvana,False,$$,4.5,1193,
206,Diners,Mexican,Breakfast & Brunch,,33.7157048,"Huntington Beach, CA",-117.9984398,Carlitos's Diner,False,$,4.5,425,
207,Asian Fusion,Cocktail Bars,,,33.7152147523344,"Huntington Beach, CA",-117.990843951702,The Cure Kitchen & Bar,False,$$,4.0,217,
208,Italian,Wine Bars,,,33.714482,"Huntington Beach, CA",-118.022467,Sebastiani's Italian Bistro,False,$$,4.5,226,
209,Seafood,Gluten-Free,Fish & Chips,,33.7016707,"Huntington Beach, CA",-117.9893749,Surf City Fish Grill,False,$$,4.0,279,
210,Mexican,Desserts,,,33.6677035393026,"Huntington Beach, CA",-118.009128406207,Fiesta Grill & Catering,False,$,4.5,435,
211,Coffee & Tea,Sandwiches,Cafes,,33.6886545,"Huntington Beach, CA",-117.9881913,Monkey House Cafe,False,$,4.0,335,
212,Thai,Noodles,Soup,,33.6856235441253,"Huntington Beach, CA",-117.988397952336,Thai Gulf Restaurant,False,$,4.0,1530,
213,Sushi Bars,Japanese,Salad,,33.715263,"Huntington Beach, CA",-118.025474,Niya Sushi,False,$$,4.5,331,
214,Ramen,Izakaya,Sushi Bars,,33.692675,"Huntington Beach, CA",-117.9890549,Ramain39 Izakaya,False,$$,4.0,538,
215,Cafes,,,,33.6993065791535,"Huntington Beach, CA",-118.010617578286,Kathy May's Lakeview Cafe,False,$$,3.0,221,
216,Japanese,Barbeque,,,33.71513,"Huntington Beach, CA",-117.9905,Gyu-Kaku Japanese BBQ,False,$$,4.0,1735,
217,Greek,Mediterranean,,,33.68076,"Huntington Beach, CA",-118.00452,Athens West,False,$,4.0,305,
218,Japanese,Sushi Bars,,,33.70043,"Huntington Beach, CA",-117.990801,Matsu Restaurant,False,$$,4.0,1102,
219,Peruvian,Chicken Shop,Seafood,,33.6844454803127,"Huntington Beach, CA",-117.987946344055,Peruvian Rotisserie Chicken,False,$$,4.0,456,
220,Thai,,,,33.7007441,"Huntington Beach, CA",-117.9903894,Thai Pepper,False,$,4.5,568,
221,Thai,,,,33.6916244,"Huntington Beach, CA",-117.9922849,Lemon Thai Cuisine,False,$$,4.0,209,
222,Bagels,Coffee & Tea,Cafes,,33.675807,"Huntington Beach, CA",-117.987091,HB Bagels & Cafe,False,$,4.5,152,
223,Seafood,Live/Raw Food,Beer Bar,,33.676216897076,"Huntington Beach, CA",-117.987208433333,Raw Bar By Slapfish,False,$$,4.0,114,
224,Sushi Bars,Asian Fusion,Poke,,33.6926838,"Huntington Beach, CA",-117.9890549,Rollrritto + Poke Bar,False,$$,4.5,408,
225,Thai,,,,33.7122612,"Huntington Beach, CA",-117.9896622,Bangkok Avenue,False,$$,4.0,661,
226,Middle Eastern,Persian/Iranian,Mediterranean,,33.7094593820972,"Huntington Beach, CA",-117.989838095972,Saffron Grill,False,$$,4.0,525,
227,Vietnamese,,,,33.685511,"Huntington Beach, CA",-117.987829,Pho Tastee,False,$,4.0,363,
228,Pizza,Fast Food,,,33.6802631908106,"Huntington Beach, CA",-118.004743987599,MOD Pizza,False,$,4.0,191,
229,Gastropubs,American (New),American (Traditional),,46.855567,"Fargo, ND",-96.854301,Lucky's 13 Pub,False,$$,4.0,164,
230,American (New),,,,46.8464012145996,"Fargo, ND",-96.8188858032227,Doolittles Woodfire Grill,False,$$,4.0,135,
231,Wine Bars,American (New),Coffee & Tea,,46.85629,"Fargo, ND",-96.7986249,Luna Fargo,False,$$,4.5,55,
232,Breweries,American (Traditional),Breakfast & Brunch,,46.8559300942077,"Fargo, ND",-96.8501852525915,Granite City Food & Brewery,False,$$,3.5,142,
233,Cajun/Creole,Breakfast & Brunch,,,46.8431799,"Fargo, ND",-96.8004,The Cajun Cafe,False,$$,4.0,54,
234,Vietnamese,,,,46.832169,"Fargo, ND",-96.805983,Viet Palace,False,$,4.5,56,
235,Indian,Himalayan/Nepalese,,,46.85963,"Fargo, ND",-96.81873,Himalayan Yak,False,$$,4.5,46,
236,Mexican,American (Traditional),,,46.876391,"Fargo, ND",-96.825996,Mango's Mexican and American Grill,False,$$,4.5,99,
237,African,,,,46.860877,"Fargo, ND",-96.818521,Rugsan East African Cuisine,False,$$,4.5,22,
238,African,,,,46.862019298448,"Fargo, ND",-96.8176097372892,Madina Cuisine,False,$,5.0,19,
239,Breakfast & Brunch,Coffee & Tea,Comfort Food,,46.85533,"Fargo, ND",-96.79899,CJ's Kitchen,False,$,3.5,51,
240,Thai,,,,46.8598762467467,"Fargo, ND",-96.8184725285067,LeeLa Thai Cuisine,False,$$,4.0,41,
241,American (New),Burgers,Beer Bar,,46.86274,"Fargo, ND",-96.83635,Sickies Garage Burgers & Brews,False,$$,3.5,112,
242,American (New),Tapas/Small Plates,American (Traditional),,46.85635,"Fargo, ND",-96.85239,Urban 42,False,$$$,2.5,19,
243,Donuts,Delis,Breakfast & Brunch,,46.86198,"Fargo, ND",-96.82791,Sweet Rings Donuts & Deli.,False,$,3.5,17,
244,Mexican,,,,46.8635,"Fargo, ND",-96.83936,Acapulco Mexican Restaurant,False,$,3.5,60,
245,Steakhouses,American (Traditional),Seafood,,46.830587,"Fargo, ND",-96.8010645,Cork 'N Cleaver,False,$$$,2.5,36,
246,Cupcakes,Gluten-Free,Bakeries,,46.8583732121081,"Fargo, ND",-96.8317974956648,Mehl's Gluten-Free Bakery,False,$$,5.0,13,
247,Music Venues,Burgers,Sports Bars,,46.8572132,"Fargo, ND",-96.8518517,Shotgun Sallys Fargo,False,$$,3.0,58,
248,Chinese,,,,46.85486,"Fargo, ND",-96.799,Great Wall Chinese Restaurant,False,$$,4.0,35,
249,Japanese,Sushi Bars,,,46.8635802208178,"Fargo, ND",-96.8454587459564,Osaka Sushi & Hibachi,False,$$,3.5,47,
250,Chinese,Buffets,Seafood,,46.860546,"Fargo, ND",-96.825477,Giant Panda,False,$,3.5,25,
251,Fast Food,,,,46.8614253766178,"Fargo, ND",-96.85046,Chick-fil-A West Acres,False,$,4.0,20,
252,Mexican,,,,46.8669935,"Fargo, ND",-96.8441207,Paradiso Mexican Restaurant,False,$$,2.5,82,
253,Middle Eastern,Greek,,,46.8620668981274,"Fargo, ND",-96.8282403341149,Cafe Aladdin,False,$$,4.5,14,
254,Greek,,,,46.8334,"Fargo, ND",-96.80579,Cafe Aladdin,False,$$,4.0,34,
255,Mexican,Food Stands,,,46.8829578,"Fargo, ND",-96.7988311,Luchadores Taqueria,False,$,4.0,7,
256,Breakfast & Brunch,Bakeries,American (Traditional),,46.8622533578167,"Fargo, ND",-96.8385775387287,Perkins Restaurant & Bakery,False,$,3.5,23,
257,Burgers,Pubs,Beer Bar,,46.8321342468262,"Fargo, ND",-96.8538513183594,JL Beers,False,$$,4.0,33,
258,Chicken Wings,American (Traditional),Sports Bars,,46.857856,"Fargo, ND",-96.851974,Buffalo Wild Wings,False,$$,3.5,20,
259,American (Traditional),,,,46.87459,"Fargo, ND",-96.79923,Mom's Diner,False,$$,3.0,16,
260,Japanese,Sushi Bars,,,46.857871,"Fargo, ND",-96.853236,Kobe's Japanese Cuisine,False,$$,3.5,70,
261,Chinese,,,,46.83447,"Fargo, ND",-96.82179,Shanghai Chinese Restaurant,False,$$,3.0,17,
262,Salad,Soup,Sandwiches,,46.8612345761994,"Fargo, ND",-96.8486988544464,Panera Bread,False,$$,3.0,25,
263,American (Traditional),Bars,Tex-Mex,,46.859276,"Fargo, ND",-96.848859,Chili's,False,$$,3.5,10,
264,Noodles,,,,46.831963,"Fargo, ND",-96.822336,Noodles & Company,False,$,4.0,9,
265,Juice Bars & Smoothies,Sandwiches,,,46.8609317348221,"Fargo, ND",-96.818865314126,Tropical Smoothie Cafe,False,$,3.5,15,
266,Sports Bars,American (Traditional),,,46.87491,"Fargo, ND",-96.84281,O'kelly's Tastes & Toddies,False,$$$,3.5,6,
267,Pizza,,,,46.85451,"Fargo, ND",-96.799,Duane's House of Pizza,False,$$,3.5,30,
268,Italian,Salad,,,46.8623094,"Fargo, ND",-96.8573134496681,Olive Garden Italian Restaurant,False,$$,3.0,26,
269,American (Traditional),Sports Bars,Burgers,,46.861021,"Fargo, ND",-96.825292,Applebee's Grill + Bar,False,$$,3.5,12,
270,Pool Halls,Gastropubs,American (Traditional),,46.83121,"Fargo, ND",-96.85615,Fargo Billiards & Gastropub,False,$$,3.0,32,
271,Sandwiches,,,,46.8610343933105,"Fargo, ND",-96.8368072509766,Erbert and Gerbert's,False,$$,3.5,10,
272,Mexican,,,,32.7083856166426,"Grand Prairie, TX",-96.9946916989489,Guanataco,False,$,4.0,229,
273,Mexican,Breakfast & Brunch,Tex-Mex,,32.748962,"Grand Prairie, TX",-96.980995,Dallas Tamales Cafe,False,$$,4.5,63,
274,Barbeque,,,,32.7381963028931,"Grand Prairie, TX",-96.9949963431212,Mike's Real Pit Bar-B-Q,False,$,4.5,75,
275,Barbeque,,,,32.7446399,"Grand Prairie, TX",-97.0093799,Gordo's BBQ & Grill,False,$$,4.0,81,
276,Italian,,,,32.7456035480766,"Grand Prairie, TX",-97.004001488339,Tuscany's Pasta & Pizza,False,$,4.0,90,
277,Mexican,,,,32.74433,"Grand Prairie, TX",-97.00237,Habaneros,False,$,3.5,50,
278,Bakeries,Mexican,Breakfast & Brunch,,32.73567,"Grand Prairie, TX",-97.00429,Rodriguez Bakery & Restaurant,False,$,4.0,32,
279,Burgers,American (Traditional),Sandwiches,,32.7444000244141,"Grand Prairie, TX",-96.9953308105469,Jimmy's Burgers,False,$,4.5,26,
280,American (Traditional),Bars,,,32.7433916,"Grand Prairie, TX",-97.0141449,Theo's Grill & Bar,False,$,4.0,38,
281,Italian,Bars,,,32.7453,"Grand Prairie, TX",-97.00377,Roma's Italian Bistro,False,$$,4.0,92,
282,Cajun/Creole,Cocktail Bars,,,32.7101822,"Grand Prairie, TX",-97.0129272,The Daiquiri Shoppe,False,$,4.0,138,
283,Fast Food,,,,32.74973,"Grand Prairie, TX",-96.96663,Theo's Drive-In,False,$,4.5,37,
284,Mexican,,,,32.709197,"Grand Prairie, TX",-97.014053,Pollo Salsa,False,$,4.0,56,
285,Mexican,Breakfast & Brunch,Desserts,,32.72004,"Grand Prairie, TX",-97.01402,Eva's Mexican Food & Taqueria,False,$,4.0,24,
286,Burgers,,,,32.7099649437474,"Grand Prairie, TX",-97.017966669288,Jimmys Big Burger,False,$,4.0,39,
287,Barbeque,,,,32.6986508,"Grand Prairie, TX",-96.9853451,Eddlemon's,False,$,5.0,10,
288,Seafood,,,,32.74496,"Grand Prairie, TX",-97.00797,Pappy's Catfish & More,False,$$,4.5,16,
289,African,,,,32.6987457,"Grand Prairie, TX",-97.0153885,Yemsade Restaurant,False,$$,4.5,33,
290,Chinese,,,,32.7460861206055,"Grand Prairie, TX",-96.9996185302734,Joy Luck,False,$,4.0,17,
291,Mexican,,,,32.7092351,"Grand Prairie, TX",-97.0010039,Tortilleria La Nueva Puntada,False,$,4.0,15,
292,Japanese,Korean,Chinese,,32.74258,"Grand Prairie, TX",-97.01632,Papa Sam,False,$,3.5,45,
293,Mexican,,,,32.7210197,"Grand Prairie, TX",-96.995491,El Carreton Tortilleria,False,$,4.0,7,
294,Barbeque,,,,32.7109313007072,"Grand Prairie, TX",-96.9946871243635,Outlaw's Barbeque,False,$,2.5,73,
295,African,,,,32.7093189954758,"Grand Prairie, TX",-97.0004910975695,Suya Stop,False,$,4.5,9,
296,Mexican,,,,32.7495193,"Grand Prairie, TX",-96.9776688,Taqueria El Regio,False,$,4.5,10,
297,Chinese,,,,32.7346416,"Grand Prairie, TX",-97.0151943,Pearl Chinese Restaurant Plus Carrier Chicken & Seafood,False,$$,3.5,12,
298,Mexican,,,,32.7453308105469,"Grand Prairie, TX",-97.0001602172852,Don Juan's Romantic Mexican Food,False,$,4.0,61,
299,Chinese,,,,32.7076873779297,"Grand Prairie, TX",-96.9926986694336,Golden Gate,False,$,3.0,22,
300,Mexican,,,,32.74453,"Grand Prairie, TX",-96.99144,El Atoron Taqueria & Restaurant,False,$,4.0,9,
301,Seafood,Mexican,,,32.745407,"Grand Prairie, TX",-96.99855,Agua Azul,False,$$,3.5,33,
302,Salvadoran,,,,32.7106656,"Grand Prairie, TX",-97.0134427,Restaurant El Mana,False,$$,4.0,13,
303,Mexican,Caterers,,,32.7477,"Grand Prairie, TX",-97.0072,La Antorcha Taco Catering Service,False,$,5.0,9,
304,Mexican,Bars,Seafood,,32.7089767456055,"Grand Prairie, TX",-97.0081253051758,Rio Bravo Bar,False,$,3.0,57,
305,Mexican,Bakeries,,,32.7103996,"Grand Prairie, TX",-97.0133514,La Tapatia Bakery & Mexican Products,False,$,4.5,13,
306,Mexican,,,,32.7448008479392,"Grand Prairie, TX",-97.0107492512824,Monterey's Little Mexico,False,$,3.5,64,
307,Caterers,African,,,32.71007,"Grand Prairie, TX",-97.021757,Kemi's Kitchen,False,$$,4.0,30,
308,Chicken Wings,,,,32.7099495,"Grand Prairie, TX",-97.0032883,Williams Chicken,False,$,4.0,11,
309,Mexican,Breakfast & Brunch,Sandwiches,,32.7481,"Grand Prairie, TX",-96.98417,La Hechizera,False,$,3.0,10,
310,Fast Food,,,,32.7461,"Grand Prairie, TX",-96.9991299,Luci's Chicken -N- Rice,False,$,3.0,6,
311,Chicken Wings,,,,32.70891,"Grand Prairie, TX",-97.00021,Wingstop,False,$,1.5,30,
312,Breakfast & Brunch,Waffles,American (Traditional),,37.3233361973483,"San Jose, CA",-121.914061851012,The Breakfast Club,False,$$,4.0,1698,
313,American (Traditional),Pubs,Gastropubs,,37.3363226652145,"San Jose, CA",-121.893842965364,Firehouse No.1 Gastropub,False,$$,4.0,1440,
314,American (New),Breakfast & Brunch,Salad,,37.308203,"San Jose, CA",-121.901284,The Table,False,$$,4.0,2617,
315,American (New),Burgers,Sandwiches,,37.3313634,"San Jose, CA",-121.8918385,Our House,False,$$,4.5,299,
316,Cocktail Bars,American (New),,,37.3350126347807,"San Jose, CA",-121.889442006445,Paper Plane,False,$$,4.0,1183,
317,Caribbean,American (Traditional),,,37.33673,"San Jose, CA",-121.8926,Back A Yard,False,$$,4.0,1844,
318,German,Bars,Venues & Event Spaces,,37.34044,"San Jose, CA",-121.89275,Ludwigs German Table,False,$$,4.0,422,
319,Coffee & Tea,Sandwiches,Breakfast & Brunch,,37.3328598269217,"San Jose, CA",-121.887831976721,Social Policy,False,$$,3.5,444,
320,Breakfast & Brunch,American (New),,,37.3101515,"San Jose, CA",-121.8956116,Cafe Gourmet,False,$$,4.0,773,
321,Music Venues,Bars,Food Court,,37.3366485,"San Jose, CA",-121.8941835,San Pedro Square Market,False,$$,4.5,907,
322,Korean,,,,37.3367777,"San Jose, CA",-121.8890072,HOM Korean Kitchen,False,$,4.0,714,
323,Vietnamese,,,,37.3417699,"San Jose, CA",-121.87951,Vung Tau Restaurant,False,$$,4.0,1399,
324,Italian,,,,37.336166540678,"San Jose, CA",-121.89867135144,Paesano Ristorante Italiano,False,$$,4.0,885,
325,Seafood,Fish & Chips,Chicken Shop,,37.33638,"San Jose, CA",-121.88988,The City Fish,False,$,4.5,894,
326,French,Supper Clubs,,,37.3393128488432,"San Jose, CA",-121.887830825091,Underground Dining At Naglee Park,False,$$$$,5.0,9,
327,Breakfast & Brunch,,,,37.306754953978,"San Jose, CA",-121.890808285113,Toast Cafe & Grill,False,$$,4.0,289,
328,Sandwiches,Italian,,,37.30458,"San Jose, CA",-121.89858,Bertucelli's La Villa,False,$$,4.5,987,
329,Vietnamese,Asian Fusion,,,37.32861,"San Jose, CA",-121.85831,Sizzle Spot,False,$$,4.0,616,
330,French,Vietnamese,Cocktail Bars,,37.33346,"San Jose, CA",-121.8872951,Élyse Restaurant,False,$$,4.5,176,
331,Brazilian,Steakhouses,,,37.3330206602097,"San Jose, CA",-121.892091400545,Taurinus Brazilian Steak House,False,$$$,4.0,895,
332,Mediterranean,Italian,,,37.30407,"San Jose, CA",-121.89831,Siena Bistro,False,$$,4.0,473,
333,Vietnamese,Soup,,,37.32861,"San Jose, CA",-121.85831,Bun Bo Hue An Nam,False,$$,4.0,1728,
334,Tapas/Small Plates,Wine Bars,Whiskey Bars,,37.336178007464,"San Jose, CA",-121.893876187673,District San Jose,False,$$,4.0,204,
335,American (Traditional),Breakfast & Brunch,,,37.308366,"San Jose, CA",-121.901722,Bill's Cafe,False,$$,4.0,1991,
336,Greek,Mediterranean,,,37.3092867427984,"San Jose, CA",-121.887104945135,Souvlaki's Greek Skewers,False,$$,4.5,867,
337,Mexican,,,,37.3219760070575,"San Jose, CA",-121.879228583685,Chavelas Restaurant,False,$,4.5,236,
338,Tapas/Small Plates,Cideries,,,37.31027,"San Jose, CA",-121.89585,The Cider Junction,False,$$,4.5,196,
339,Seafood,Bars,Venues & Event Spaces,,37.3318048646183,"San Jose, CA",-121.891520633101,Scott's Seafood,False,$$$,3.5,964,
340,Mexican,,,,37.3330684770691,"San Jose, CA",-121.914127461814,Zona Rosa,False,$$,4.0,895,
341,Diners,Breakfast & Brunch,,,37.3372116088867,"San Jose, CA",-121.883529663086,Peanuts Deluxe Cafe,False,$,4.0,548,
342,Greek,,,,37.335210678353,"San Jose, CA",-121.892775829557,Nick The Greek,False,$$,4.0,723,
343,American (Traditional),Desserts,Italian,,37.329002,"San Jose, CA",-121.88446,Orchestria Palm Court,False,$$,4.5,149,
344,Vietnamese,,,,37.33017,"San Jose, CA",-121.88654,Vietnoms,False,$$,4.0,153,
345,Brewpubs,American (Traditional),Asian Fusion,,37.3349600020194,"San Jose, CA",-121.88979892228,Skewers & Brew,False,$,4.5,86,
346,Seafood,Mexican,Latin American,,37.3036,"San Jose, CA",-121.91402,Mavericks Mexican Grill,False,$$,4.5,604,
347,Coffee & Tea,Sandwiches,Breakfast & Brunch,,37.33113,"San Jose, CA",-121.88718,Caffe Frascati,False,$,4.0,537,
348,Cocktail Bars,Asian Fusion,Pizza,,37.3352859388708,"San Jose, CA",-121.88993498683,Nomikai,False,$$,4.0,281,
349,Restaurants,,,,37.304512408122,"San Jose, CA",-121.89778667565,Vin Santo Ristorante,False,$$,4.0,558,
350,Barbeque,Hawaiian,Soul Food,,37.339045,"San Jose, CA",-121.8838748,Matiki Island BBQ,False,$$,4.5,191,
351,American (New),French,Brasseries,,37.3067996606855,"San Jose, CA",-121.899684849108,Black Sheep Brasserie,False,$$$,3.5,454,
352,Breakfast & Brunch,Cafes,,,37.295015,"San Jose, CA",-121.9145,Cafe San Jose,False,$$,4.0,709,
353,Sandwiches,Coffee & Tea,,,37.3310477608158,"San Jose, CA",-121.88697449863,Cubamex,False,$,4.5,216,
354,American (New),Bars,,,37.30686,"San Jose, CA",-121.90035,Braise,False,$$$,4.0,212,
355,Burgers,Halal,American (Traditional),,37.3083885,"San Jose, CA",-121.9008297,Main Street Burgers,False,$$,4.0,813,
356,Vietnamese,Noodles,,,37.33175,"San Jose, CA",-121.85805,Pho Ha Noi,False,$$,3.5,431,
357,American (Traditional),Gastropubs,,,37.3351799347696,"San Jose, CA",-121.893162662952,The Farmers Union,False,$$,3.5,916,
358,Vegan,Bakeries,Desserts,,37.3328558338071,"San Jose, CA",-121.884928643703,Cinnaholic,False,$,4.5,171,
359,Italian,Wine Bars,Pizza,,33.64101,"Scottsdale, AZ",-111.86225,Sophia's Kitchen,False,$$,4.5,52,
360,American (New),Wine Bars,Cafes,,33.6747412139709,"Scottsdale, AZ",-111.888050157246,The Living Room,False,$$,4.0,246,
361,Barbeque,Burgers,Bakeries,,33.6393699645996,"Scottsdale, AZ",-111.879257202148,The Thumb BBQ,False,$$,4.5,1016,
362,American (New),Distilleries,Breakfast & Brunch,,33.6278142695705,"Scottsdale, AZ",-111.893512550648,OHSO Distillery- North Scottsdale,False,$$,4.0,554,
363,American (Traditional),Breakfast & Brunch,American (New),,33.63951,"Scottsdale, AZ",-111.86176,The Vig McDowell Mountain,False,$$,3.5,285,
364,Ramen,Noodles,,,33.6299381313174,"Scottsdale, AZ",-111.888375267105,Ramen Hood,False,$$,4.0,163,
365,Breakfast & Brunch,,,,33.6395258037176,"Scottsdale, AZ",-111.864763386548,The Breakfast Joynt,False,$$,4.0,76,
366,American (New),Sandwiches,Breakfast & Brunch,,33.6734322408285,"Scottsdale, AZ",-111.889232426509,The Herb Box,False,$$,4.0,365,
367,Poke,Hawaiian,Sushi Bars,,33.65304,"Scottsdale, AZ",-111.88611,Koi Poke,False,$$,5.0,270,
368,Pubs,Breweries,American (New),,33.62870817,"Scottsdale, AZ",-111.89323767,Four Peaks Grill & Tap,False,$$,4.0,625,
369,Pizza,Italian,Sandwiches,,33.6567087987234,"Scottsdale, AZ",-111.866507523932,Ciao Grazie,False,$$,4.0,138,
370,Salad,Juice Bars & Smoothies,Sandwiches,,33.63911,"Scottsdale, AZ",-111.86423,Freshbox McDowell Mountain,False,$$,4.5,110,
371,Thai,,,,33.6271821,"Scottsdale, AZ",-111.8911913,Thai House,False,$$,4.0,432,
372,Bakeries,Sandwiches,Pasta Shops,,33.6277358352352,"Scottsdale, AZ",-111.891602463589,Wildflower,False,$$,4.0,278,
373,Sports Bars,American (Traditional),Cocktail Bars,,33.6745555678279,"Scottsdale, AZ",-111.888217563843,All American Modern Sports Grill,False,$$,3.5,149,
374,Italian,,,,33.6766489,"Scottsdale, AZ",-111.8965942,Isabella's Kitchen,False,$$,3.5,272,
375,American (New),,,,33.677677154541,"Scottsdale, AZ",-111.89705657959,Phil's Grill,False,$$,4.5,22,
376,Sports Bars,American (Traditional),American (New),,33.629436,"Scottsdale, AZ",-111.891499,Twin Peaks,False,$$,3.5,437,
377,American (Traditional),Sports Bars,Breakfast & Brunch,,33.6392052826735,"Scottsdale, AZ",-111.881924769312,18 Degrees,False,$$,3.0,110,
378,Sushi Bars,Lounges,Japanese,,33.6382752957619,"Scottsdale, AZ",-111.86321134841,Nori Sushi Scottsdale,False,$$,4.0,197,
379,Mexican,,,,33.6748380029035,"Scottsdale, AZ",-111.888543357472,Jalapeño Inferno,False,$$,3.5,226,
380,Ramen,Noodles,,,33.6280962152247,"Scottsdale, AZ",-111.891516618314,Hot Noodles Cold Sake,False,$$,3.5,187,
381,Pizza,,,,33.6741553034034,"Scottsdale, AZ",-111.887854197887,Grimaldi's Pizzeria,False,$$,3.5,249,
382,Coffee & Tea,Breakfast & Brunch,Sandwiches,,33.677702,"Scottsdale, AZ",-111.897058,Mojo Morning Joint,False,$$,4.0,50,
383,Irish,Irish Pub,Music Venues,,33.6281017,"Scottsdale, AZ",-111.8912231,The Skeptical Chymist,False,$$,3.5,389,
384,Sushi Bars,,,,33.6301802834175,"Scottsdale, AZ",-111.887337887657,Teharu Sushi,False,$,3.5,376,
385,Burgers,,,,33.65304,"Scottsdale, AZ",-111.88612,Lush Burger,False,$$,3.0,377,
386,Barbeque,Hawaiian,,,33.6276482590942,"Scottsdale, AZ",-111.887166872621,Ono Hawaiian BBQ,False,$,3.5,100,
387,Steakhouses,Wine Bars,,,33.674238,"Scottsdale, AZ",-111.889288,Flemings Prime Steakhouse & Wine Bar,False,$$$,3.5,239,
388,Italian,Pizza,Sports Bars,,33.6513692,"Scottsdale, AZ",-111.8862448,Rosati's Pizza,False,$$,3.0,107,
389,Delis,Coffee & Tea,,,33.63769,"Scottsdale, AZ",-111.88189,Erika's Coffee Dock,False,$,4.0,7,
390,Mexican,,,,33.6288866986349,"Scottsdale, AZ",-111.889024232284,Cafe Rio Mexican Grill,False,$,3.5,117,
391,American (New),,,,33.637825,"Scottsdale, AZ",-111.896652,Agave Southwest Bar and Grill,False,$$$,3.5,15,
392,Mexican,Seafood,Salad,,33.6281676919852,"Scottsdale, AZ",-111.891439846224,Rubio's,False,$,4.0,96,
393,Burgers,,,,33.6297775,"Scottsdale, AZ",-111.8874099,Smashburger,False,$,3.5,176,
394,Burgers,Fast Food,Coffee & Tea,,33.6520076169001,"Scottsdale, AZ",-111.886669993401,McDonald's,False,$,1.5,43,
395,Sandwiches,Fast Food,Salad,,33.62767,"Scottsdale, AZ",-111.891829,Potbelly Sandwich Shop,False,$,4.0,54,
396,Pizza,Italian,Sandwiches,,33.6275622749861,"Scottsdale, AZ",-111.887231245637,Streets of New York,False,$$,3.0,79,
397,Bagels,Delis,Coffee & Tea,,33.62901904991,"Scottsdale, AZ",-111.889102867608,Einstein Bros Bagels,False,$,3.0,52,
398,American (Traditional),Comfort Food,,,33.6292877197266,"Scottsdale, AZ",-111.888832092285,Boston Market,False,$,3.0,37,
399,Fast Food,Sandwiches,Delis,,33.6297694,"Scottsdale, AZ",-111.8875115,Jersey Mike's Subs,False,$,3.0,76,
400,Cafes,,,,33.677677154541,"Scottsdale, AZ",-111.89705657959,Quill Creek Cafe,False,$$,3.5,24,
401,Burgers,Fast Food,Coffee & Tea,,33.6292666693181,"Scottsdale, AZ",-111.892012286971,McDonald's,False,$,2.0,63,
402,Breakfast & Brunch,Asian Fusion,American (New),,37.7642352,"San Francisco, CA",-122.4306936,Kitchen Story,False,$$,4.0,2930,
403,Soul Food,Breakfast & Brunch,Southern,,37.7781489203981,"San Francisco, CA",-122.438551256878,Brenda's Meat & Three,False,$$,4.0,920,
404,Breakfast & Brunch,French,Soul Food,,37.7829016035273,"San Francisco, CA",-122.419043442957,Brenda's French Soul Food,False,$$,4.0,10316,
405,Breakfast & Brunch,French,,,37.765244,"San Francisco, CA",-122.4501138,Zazie,False,$$,4.0,4174,
406,Ramen,,,,37.785155,"San Francisco, CA",-122.432075,Marufuku Ramen SF,False,$$,4.5,1994,
407,American (Traditional),Breakfast & Brunch,Sandwiches,,37.785735681426,"San Francisco, CA",-122.43507770852,Sweet Maple,False,$$,4.0,3296,
408,German,,,,37.7762603759766,"San Francisco, CA",-122.426391601562,Suppenküche,False,$$,4.0,3051,
409,American (New),Wine Bars,Breakfast & Brunch,,37.759958,"San Francisco, CA",-122.435089,Fable,False,$$,4.0,424,
410,Thai,Comfort Food,,,37.7602179,"San Francisco, CA",-122.4110749,Farmhouse Kitchen Thai Cuisine,False,$$,4.0,1792,
411,Coffee & Tea,Breakfast & Brunch,,,37.7876476643898,"San Francisco, CA",-122.414076908221,Farm : Table,False,$$,4.0,1674,
412,Korean,Soup,,,37.78601,"San Francisco, CA",-122.42858,Daeho korean BBQ & BEEF SOUP,False,$$,4.5,71,
413,Bars,American (New),Seafood,,37.78818,"San Francisco, CA",-122.41458,Liholiho Yacht Club,False,$$$,4.5,2071,
414,Mexican,Breakfast & Brunch,Cocktail Bars,,37.7656775,"San Francisco, CA",-122.4500746,Padrecito,False,$$,4.0,821,
415,American (Traditional),Breakfast & Brunch,Cafes,,37.7817050429594,"San Francisco, CA",-122.409839630127,Dottie's True Blue Cafe,False,$$,4.0,4265,
416,Southern,Cajun/Creole,American (Traditional),,37.74372,"San Francisco, CA",-122.42197,The Front Porch,False,$$,4.0,2655,
417,Breakfast & Brunch,,,,37.7666182758937,"San Francisco, CA",-122.430262778253,Wooden Spoon,False,$$,4.5,211,
418,American (New),Sandwiches,Breakfast & Brunch,,37.774056,"San Francisco, CA",-122.424198,Straw,False,$$,4.0,1732,
419,Breakfast & Brunch,Filipino,French,,37.7883672,"San Francisco, CA",-122.4238901,1608 Bistro,False,$$,4.5,125,
420,Comfort Food,Pizza,Cocktail Bars,,37.7640665498011,"San Francisco, CA",-122.432531118393,Starbelly,False,$$,4.0,1724,
421,American (New),Modern European,Desserts,,37.77483,"San Francisco, CA",-122.43746,Nopa,False,$$$,4.0,4905,
422,American (Traditional),Breakfast & Brunch,,,37.7832999,"San Francisco, CA",-122.45988,Eats,False,$$,4.0,1065,
423,Tapas/Small Plates,,,,37.7573462,"San Francisco, CA",-122.4214034,Loló,False,$$,4.0,1996,
424,Mexican,Korean,Latin American,,37.7897794,"San Francisco, CA",-122.410717,Tacorea,False,$,4.5,1386,
425,Tapas/Small Plates,American (New),Desserts,,37.78374,"San Francisco, CA",-122.433005,State Bird Provisions,False,$$$,4.0,2588,
426,Breakfast & Brunch,Salad,Burgers,,37.751351,"San Francisco, CA",-122.432183,Aha Fresh,False,$$,4.0,949,
427,Southern,Breakfast & Brunch,Diners,,37.7844,"San Francisco, CA",-122.41855,Rusty's Southern,False,$$,4.5,854,
428,Breakfast & Brunch,Burgers,American (New),,37.7765676,"San Francisco, CA",-122.4264822,Laguna Restaurant,False,$$,4.5,69,
429,Indonesian,,,,37.76085,"San Francisco, CA",-122.43365,INDO,False,$$$,4.5,100,
430,Italian,Cocktail Bars,,,37.776963880538,"San Francisco, CA",-122.423868469312,a Mano,False,$$,4.0,684,
431,American (New),Desserts,Wine Bars,,37.7627220154927,"San Francisco, CA",-122.432276324008,Frances,False,$$$,4.5,1475,
432,American (Traditional),Creperies,Breakfast & Brunch,,37.7701485211239,"San Francisco, CA",-122.445868540619,1428 HAIGHT Patio Cafe & Crepery,False,$$,4.0,332,
433,Bakeries,Cafes,Desserts,,37.7614250022004,"San Francisco, CA",-122.424051321456,Tartine Bakery & Cafe,False,$$,4.0,7570,
434,Tapas/Small Plates,Lounges,Izakaya,,37.7840954508032,"San Francisco, CA",-122.432791119359,Izakaya KOU,False,$$,4.0,726,
435,Bars,American (Traditional),Venues & Event Spaces,,37.79094,"San Francisco, CA",-122.43443,The Snug,False,$$,4.0,142,
436,Caribbean,Cuban,Tapas Bars,,37.7691434,"San Francisco, CA",-122.4520399,Cha Cha Cha,False,$$,4.0,3147,
437,Filipino,Breakfast & Brunch,Tapas/Small Plates,,37.76336,"San Francisco, CA",-122.46593,Malasa,False,$$,4.5,123,
438,Cafes,Breakfast & Brunch,Creperies,,37.7512897856745,"San Francisco, CA",-122.43616884886,Diamond Cafe,False,$$,4.5,122,
439,American (New),Mediterranean,Wine Bars,,37.761243,"San Francisco, CA",-122.434248,Lark,False,$$,4.0,255,
440,Ramen,Noodles,,,37.7866908459856,"San Francisco, CA",-122.414326295257,Mensho Tokyo,False,$$,4.0,1891,
441,Ramen,,,,37.7861574638014,"San Francisco, CA",-122.430057115853,Hinodeya Ramen Bar,False,$$,4.0,849,
442,Burmese,,,,37.782787322998,"San Francisco, CA",-122.462539672852,Burma Superstar,False,$$,4.0,6500,
443,Coffee & Tea,Bakeries,Breakfast & Brunch,,37.78934,"San Francisco, CA",-122.43423,Jane on Fillmore,False,$$,4.0,914,
444,Breweries,American (Traditional),Venues & Event Spaces,,37.7757521780078,"San Francisco, CA",-122.446032238623,Barrel Head Brewhouse,False,$$,4.0,504,
445,Mediterranean,Turkish,,,37.7548912,"San Francisco, CA",-122.4228895,Tuba Authentic Turkish Restaurant,False,$$,4.5,959,
446,Mexican,Gluten-Free,,,37.77343530099,"San Francisco, CA",-122.438993048014,Nopalito,False,$$,4.0,1785,
447,Latin American,Mexican,,,37.764333486557,"San Francisco, CA",-122.432760447264,The Castro Republic,False,$$,4.5,284,
448,Diners,Korean,American (Traditional),,37.763926,"San Francisco, CA",-122.4657578,Art's Cafe,False,$,4.0,1069,
449,Cocktail Bars,American (New),,,46.805696,"Bismarck, ND",-100.784023,Humpback Sally's,False,$$,4.5,74,
450,French,Italian,,,46.80567,"Bismarck, ND",-100.788689074074,Butterhorn,False,$$,4.5,34,
451,German,American (Traditional),Breakfast & Brunch,,46.80489,"Bismarck, ND",-100.75329,Little Cottage Cafe,False,$,4.0,76,
452,Noodles,Bars,Soup,,46.80569,"Bismarck, ND",-100.7886599,Noodlezip,False,$$,4.5,84,
453,Pizza,Italian,Coffee & Tea,,46.8058166503906,"Bismarck, ND",-100.784477233887,Fireflour Pizza + Coffee Bar,False,$$,4.5,175,
454,American (New),Steakhouses,Desserts,,46.8062477111816,"Bismarck, ND",-100.785713195801,Pirogue Grille,False,$$$,4.5,93,
455,Coffee & Tea,Breakfast & Brunch,Salad,,46.80569,"Bismarck, ND",-100.78378,Terra  Nomad,False,$$,4.5,55,
456,American (New),,,,46.8063135,"Bismarck, ND",-100.7861356,The Toasted Frog,False,$$,3.5,104,
457,Irish Pub,Fish & Chips,Sandwiches,,46.80558,"Bismarck, ND",-100.78558,Blarney Stone Pub- Bismarck,False,$$,4.0,170,
458,Pizza,Sandwiches,Cocktail Bars,,46.8056399,"Bismarck, ND",-100.78383,The Starving Rooster - Bismarck,False,$$,4.0,53,
459,Mexican,,,,46.7936508210209,"Bismarck, ND",-100.772909488997,La Enchilada,False,$$,4.5,19,
460,Breakfast & Brunch,Burgers,Sandwiches,,46.7952430170938,"Bismarck, ND",-100.787755037037,Lucky's 13 Pub,False,$$,3.0,36,
461,Pizza,Burgers,Bars,,46.817873,"Bismarck, ND",-100.788034,The Walrus Restaurant,False,$$,4.0,90,
462,Bars,American (Traditional),Steakhouses,,46.80559,"Bismarck, ND",-100.78485,Peacock Alley,False,$$,3.0,143,
463,Thai,,,,46.80815,"Bismarck, ND",-100.7903,Yim Siam Thai,False,$$,4.0,29,
464,Thai,Sushi Bars,Cocktail Bars,,46.835669,"Bismarck, ND",-100.773884,Oahu Hawaiian BBQ Sushi Bar & Thai Cuisine,False,$$,4.0,112,
465,American (New),Cocktail Bars,American (Traditional),,46.8073601811633,"Bismarck, ND",-100.791332353967,Broadway Grill & Tavern,False,$$,4.0,45,
466,Seafood,Steakhouses,American (New),,46.829109,"Bismarck, ND",-100.771202,40 Steak & Seafood,False,$$$,3.5,64,
467,Burgers,,,,46.80453,"Bismarck, ND",-100.75304,Big Boy Restaurant,False,$,4.5,39,
468,Mongolian,Chinese,Asian Fusion,,46.80172,"Bismarck, ND",-100.78719,HuHot Mongolian Grill,False,$$,4.5,29,
469,Food Trucks,Thai,,,46.7944657,"Bismarck, ND",-100.7971524,Eat Thai Cafe,False,$$,4.5,27,
470,Coffee & Tea,Breakfast & Brunch,,,46.8051168,"Bismarck, ND",-100.7756218,BittyBean,False,$$,5.0,10,
471,Burgers,Beer Bar,,,46.8071827,"Bismarck, ND",-100.7872701,JL Beers,False,$$,4.5,69,
472,Mexican,,,,46.794519,"Bismarck, ND",-100.784378,La Carreta Of Bismarck,False,$$,4.0,78,
473,Steakhouses,American (Traditional),Barbeque,,46.8348521109624,"Bismarck, ND",-100.775319223044,LongHorn Steakhouse,False,$$$,4.0,40,
474,New Mexican Cuisine,,,,46.8060743839212,"Bismarck, ND",-100.792262767915,Los Lunas A Taste of New Mexico,False,$$,3.5,24,
475,American (New),Italian,,,46.80389,"Bismarck, ND",-100.77531,Bistro 1100,False,$$,3.5,46,
476,Mexican,Grocery,,,46.79088,"Bismarck, ND",-100.77291,La Tejana Mexican market,False,$$,4.0,26,
477,Burgers,Caterers,American (Traditional),,46.8251646,"Bismarck, ND",-100.7721705,Wood House,False,$,3.5,55,
478,Delis,Sandwiches,,,46.8291393272938,"Bismarck, ND",-100.773429655437,Landers' Northside Market,False,$$,4.5,6,
479,Pizza,,,,46.80433,"Bismarck, ND",-100.77769,Bruno's Pizza,False,$$,3.5,37,
480,Chinese,,,,46.8329872,"Bismarck, ND",-100.7740794,Hong Kong Chinese Restaurant,False,$$,3.5,28,
481,Sushi Bars,Japanese,Thai,,46.83573,"Bismarck, ND",-100.77712,Shogun,False,$$,4.5,19,
482,Chinese,Seafood,,,46.8276748657227,"Bismarck, ND",-100.793060302734,China Garden,False,$,4.0,27,
483,Delis,Sandwiches,,,46.83272,"Bismarck, ND",-100.7745,Country House Deli,False,$,4.5,13,
484,Diners,,,,46.8336807133956,"Bismarck, ND",-100.771780908108,Kroll's Diner,False,$,3.5,31,
485,Barbeque,Comfort Food,American (Traditional),,46.7949142,"Bismarck, ND",-100.7868195,Famous Dave's Bar-B-Que,False,$$,4.0,34,
486,Pizza,Beer Bar,,,46.8324035739039,"Bismarck, ND",-100.776155591011,A&B Pizza - Bismarck,False,$,3.5,25,
487,Chinese,,,,46.83349,"Bismarck, ND",-100.7743,China Star,False,$$,3.0,29,
488,Steakhouses,,,,46.79197,"Bismarck, ND",-100.77274,Jack's Steakhouse & Seafood,False,$$,2.5,28,
489,Fast Food,Sandwiches,Burgers,,46.8067,"Bismarck, ND",-100.76064,Scotty's Drive-In,False,$$,4.0,9,
490,Music Venues,Vinyl Records,Cafes,,46.80574,"Bismarck, ND",-100.78838,Rhythm Records & Cafe,False,$$,3.5,3,
491,American (Traditional),Soup,Salad,,46.80054,"Bismarck, ND",-100.78842,The Ground Round,False,$$,3.0,23,
492,Soup,Bakeries,Sandwiches,,46.7944394052029,"Bismarck, ND",-100.782583504915,Panera Bread,False,$$,3.0,15,
493,Barbeque,Bars,American (Traditional),,38.929073,"Overland Park, KS",-94.685294,Q39 South,False,$$,4.5,706,
494,Beer Bar,American (New),,,38.91011,"Overland Park, KS",-94.67407,Tabard's Ale House,False,$$,4.5,56,
495,Breakfast & Brunch,Sandwiches,Burgers,,38.9255899457604,"Overland Park, KS",-94.6874625345322,The Big Biscuit,False,$$,4.5,84,
496,American (Traditional),,,,38.91804,"Overland Park, KS",-94.66674,Overland Park Grill,False,$$$,4.0,256,
497,Tacos,Fast Food,,,38.9388656,"Overland Park, KS",-94.6694544,El Fogon - Overland Park,False,$,4.0,297,
498,Korean,,,,38.9405521,"Overland Park, KS",-94.6677949,Gangnam Korean Restaurant,False,$$,4.5,78,
499,Burgers,Mexican,Desserts,,38.9124,"Overland Park, KS",-94.6719899,Sheridan's Unforked,False,$,4.0,381,
500,Gastropubs,American (Traditional),,,38.91767,"Overland Park, KS",-94.64798,Pig & Finch,False,$$,4.0,283,
501,Barbeque,,,,38.913695,"Overland Park, KS",-94.666776,Burnt End BBQ,False,$$,4.0,298,
502,Breakfast & Brunch,Cafes,American (Traditional),,38.90998,"Overland Park, KS",-94.67399,First Watch,False,$$,4.0,96,
503,Wine Bars,American (New),,,38.91246,"Overland Park, KS",-94.66344,Louie's Wine Dive & Kitchen 119,False,$$,4.0,145,
504,Mexican,Breakfast & Brunch,,,38.9268834954735,"Overland Park, KS",-94.6842171996832,Tortilla Ranch Mexican Grill,False,$,4.0,154,
505,Mexican,,,,38.91461,"Overland Park, KS",-94.66729,K-Macho's Mexican Grill and Cantina - Overland Park,False,$$,4.0,285,
506,Bakeries,Desserts,Cafes,,38.908694,"Overland Park, KS",-94.673192,Kneaders Bakery & Café,False,$,3.5,30,
507,Bars,Desserts,American (Traditional),,38.930465,"Overland Park, KS",-94.669349,210 Bar and Grill,False,$$,4.5,5,
508,Thai,,,,38.9131249,"Overland Park, KS",-94.6727532,Hot Basil Thai Cuisine,False,$$,4.0,290,
509,Mexican,,,,38.90901,"Overland Park, KS",-94.66876,BRAVOS MEXICAN GRILL,False,$$,4.0,89,
510,Korean,Barbeque,,,38.9002693646677,"Overland Park, KS",-94.6668993968948,Chosun Korean BBQ,False,$$,3.5,198,
511,American (Traditional),Sports Bars,,,38.89912,"Overland Park, KS",-94.66641,The Peanut,False,$$,4.0,124,
512,Brazilian,Steakhouses,,,38.9123923,"Overland Park, KS",-94.6682672,Porto Do Sul,False,$$$,4.0,130,
513,Greek,,,,38.91241,"Overland Park, KS",-94.67156,Pita Blu,False,$,4.0,121,
514,Chinese,,,,38.9132181846582,"Overland Park, KS",-94.6715833987537,Sichuan Dynasty,False,$$,4.0,158,
515,Indian,Pakistani,Halal,,38.90026,"Overland Park, KS",-94.66633,Kurry Leaves Indian Cuisine,False,$$,4.5,85,
516,Bagels,Coffee & Tea,Sandwiches,,38.9387861293154,"Overland Park, KS",-94.6663871134919,Meshuggah Bagels,False,$,4.0,72,
517,Indian,Seafood,Halal,,38.9117914756164,"Overland Park, KS",-94.6610233576721,Spice N Rice,False,$$,4.0,177,
518,Indian,,,,38.92824,"Overland Park, KS",-94.69863,Kulture Kurry,False,$$,4.0,200,
519,Middle Eastern,Mediterranean,Greek,,38.9384311,"Overland Park, KS",-94.6667416,The Basha Cuisine,False,$$,4.0,177,
520,Vietnamese,Asian Fusion,Korean,,38.9399139965314,"Overland Park, KS",-94.6704640629499,Cafe Vie,False,$,3.5,234,
521,Pizza,Italian,,,38.92817,"Overland Park, KS",-94.69815,Rosati's Pizza,False,$$,4.0,128,
522,Breakfast & Brunch,American (Traditional),Cafes,,38.92797,"Overland Park, KS",-94.69808,First Watch,False,$,4.0,60,
523,Bakeries,Cafes,,,38.911528,"Overland Park, KS",-94.663712,Best Regards Bakery & Cafe,False,$,3.5,97,
524,American (New),Desserts,,,38.9124591,"Overland Park, KS",-94.6621875,The Cheesecake Factory,False,$$,3.5,191,
525,Italian,Desserts,Sandwiches,,38.928477,"Overland Park, KS",-94.6989425271749,Garozzo's Ristorante,False,$$,3.0,146,
526,Korean,Barbeque,,,38.9395609089762,"Overland Park, KS",-94.6652371051168,Choga Korean Restaurant,False,$$,3.5,175,
527,Delis,Breakfast & Brunch,Sandwiches,,38.9282931174402,"Overland Park, KS",-94.6647804152748,Elite Cafe,False,$,4.5,4,
528,Breakfast & Brunch,Sandwiches,,,38.930938,"Overland Park, KS",-94.691925,The New Café 32,False,$,4.0,6,
529,Bars,American (New),Venues & Event Spaces,,38.9366401216039,"Overland Park, KS",-94.6481646896063,Topgolf,False,$$,3.5,264,
530,Bars,Steakhouses,Seafood,,38.91728,"Overland Park, KS",-94.64841,801 Chophouse Leawood,False,$$$$,4.5,134,
531,Burgers,,,,38.9124854880111,"Overland Park, KS",-94.6604800877237,Smashburger,False,$,3.5,142,
532,Pizza,Italian,,,38.9117565,"Overland Park, KS",-94.661301,SPIN! Pizza,False,$$,4.0,137,
533,Italian,Seafood,,,38.9364564,"Overland Park, KS",-94.668509,Carrabba's Italian Grill,False,$$,3.5,96,
534,Pizza,Italian,Sandwiches,,38.90003,"Overland Park, KS",-94.66653,Minsky's Pizza,False,$$,4.0,31,
535,Seafood,Bars,,,38.91353,"Overland Park, KS",-94.64833,Bristol Seafood Grill,False,$$$,4.5,333,
536,Mexican,,,,38.9409455132306,"Overland Park, KS",-94.6693749861967,Jose Peppers,False,$$,3.5,122,
537,Japanese,Sushi Bars,,,38.9080272,"Overland Park, KS",-94.6704094,Han Shin Japanese Restaurant,False,$$,4.0,78,
538,Chinese,,,,38.9141466192176,"Overland Park, KS",-94.7027032969589,Chinese Palace,False,$$,4.0,51,
539,Sandwiches,Fast Food,Salad,,38.927095,"Overland Park, KS",-94.663637,Potbelly Sandwich Shop,False,$,4.0,43,
540,American (New),Breakfast & Brunch,Wine Bars,,38.4329167,"Santa Rosa, CA",-122.715037,The Spinster Sisters,False,$$,4.0,883,
541,Breakfast & Brunch,Waffles,,,38.443726,"Santa Rosa, CA",-122.7162415,The Naked Pig,False,$$,4.0,813,
542,Bars,Seafood,American (New),,38.44504,"Santa Rosa, CA",-122.70581,Bird & The Bottle,False,$$,4.5,671,
543,American (New),,,,38.4388843977484,"Santa Rosa, CA",-122.719864845276,The Pullman Kitchen,False,$$,4.0,380,
544,Indian,,,,38.4402983,"Santa Rosa, CA",-122.7147225,Bollywood Bar & Clay Oven,False,$$,4.5,149,
545,Peruvian,,,,38.4289954,"Santa Rosa, CA",-122.7326817,Sazón,False,$$,4.5,835,
546,Diners,,,,38.469803,"Santa Rosa, CA",-122.730197,Zee's Diner,False,$$,4.5,135,
547,Breakfast & Brunch,American (Traditional),,,38.4344413,"Santa Rosa, CA",-122.7117182,Dierk's Parkside Cafe,False,$$,4.0,779,
548,Pizza,Brewpubs,,,38.4418,"Santa Rosa, CA",-122.71164,Russian River Brewing,False,$$,4.0,2873,
549,Italian,,,,38.437865,"Santa Rosa, CA",-122.720206,LoCoco's Cucina Rustica,False,$$,4.0,733,
550,Bakeries,Desserts,Waffles,,38.4438699,"Santa Rosa, CA",-122.73008,Sonoma Crust Bakery,False,$$,4.5,160,
551,Comfort Food,Bars,,,38.4377604,"Santa Rosa, CA",-122.720293,Jackson's Bar and Oven,False,$$,4.0,671,
552,Italian,,,,38.44263,"Santa Rosa, CA",-122.70339,Riviera Ristorante,False,$$,4.5,398,
553,Coffee & Tea,Breakfast & Brunch,Cajun/Creole,,38.441562775953,"Santa Rosa, CA",-122.712320052087,The Parish Cafe,False,$$,4.0,126,
554,Cafes,Pubs,Breakfast & Brunch,,38.4433099,"Santa Rosa, CA",-122.71805,Brew,False,$,4.5,254,
555,Seafood,Live/Raw Food,Fish & Chips,,38.429095,"Santa Rosa, CA",-122.7116143,Santa Rosa Seafood Raw Bar and Grill,False,$$,4.5,318,
556,American (New),Cocktail Bars,,,38.440490009644,"Santa Rosa, CA",-122.713060786551,Perch + Plow,False,$$,4.0,235,
557,Japanese,,,,38.4583201261151,"Santa Rosa, CA",-122.716800011694,Ippinn Udon & Tempura,False,$,4.5,208,
558,American (Traditional),Breakfast & Brunch,,,38.47229,"Santa Rosa, CA",-122.7369,Piner Cafe,False,$$,4.0,439,
559,Coffee & Tea,Breakfast & Brunch,,,38.4403579431055,"Santa Rosa, CA",-122.702474246784,The Pharmacy,False,$$,4.0,210,
560,Bakeries,Cafes,Cooking Classes,,38.440628,"Santa Rosa, CA",-122.724452,Criminal Baking Co & Noshery,False,$$,4.5,277,
561,Puerto Rican,Latin American,,,38.4412786394158,"Santa Rosa, CA",-122.714423239231,el coqui,False,$$,4.0,891,
562,Pizza,Wine Bars,Italian,,38.4490106,"Santa Rosa, CA",-122.7266713,Cibo Rustico Pizzeria,False,$$,4.5,216,
563,American (Traditional),American (New),,,38.44607,"Santa Rosa, CA",-122.70263,Bruno's on Fourth,False,$$,4.0,240,
564,Burmese,Asian Fusion,,,38.4421952896008,"Santa Rosa, CA",-122.716760504487,Best of Burma 2,False,$$,4.5,339,
565,Pizza,Breakfast & Brunch,Sandwiches,,38.4472706,"Santa Rosa, CA",-122.7316967,Franchettis',False,$$,4.0,264,
566,Steakhouses,Bars,Seafood,,38.43883,"Santa Rosa, CA",-122.72322,Stark's,False,$$$,4.0,1097,
567,American (Traditional),Breakfast & Brunch,,,38.44969,"Santa Rosa, CA",-122.688922,Hank's Creekside Restaurant,False,$$,4.0,403,
568,Italian,Seafood,,,38.4411888,"Santa Rosa, CA",-122.7087784,Ca'Bianca Ristorante Italiano,False,$$,4.5,433,
569,Breakfast & Brunch,,,,38.4374198913574,"Santa Rosa, CA",-122.720039367676,Omelette Express,False,$$,3.5,413,
570,Sandwiches,American (New),Breakfast & Brunch,,38.4429104120849,"Santa Rosa, CA",-122.703260791909,Zoftig Eatery,False,$$,4.5,80,
571,Tapas Bars,Tapas/Small Plates,Spanish,,38.44148,"Santa Rosa, CA",-122.71237,Gerard's Paella,False,$$,4.0,140,
572,French,,,,38.43707,"Santa Rosa, CA",-122.72004,La Gare French Restaurant,False,$$$,4.0,305,
573,Thai,Noodles,Salad,,38.458655,"Santa Rosa, CA",-122.729712,SEA Noodle Bar,False,$$,4.0,431,
574,Indian,Himalayan/Nepalese,,,38.45047,"Santa Rosa, CA",-122.68757,Yeti Restaurant,False,$$,4.0,176,
575,Diners,Breakfast & Brunch,,,38.4455377,"Santa Rosa, CA",-122.7398677,Page's Diner,False,$,4.0,208,
576,Vietnamese,Cambodian,Noodles,,38.425595,"Santa Rosa, CA",-122.708801,Noodle Palace,False,$,4.0,290,
577,Pizza,Breweries,Gastropubs,,38.459197,"Santa Rosa, CA",-122.717628,Steele & Hops,False,$$,4.0,270,
578,Breweries,American (Traditional),,,38.4398307800293,"Santa Rosa, CA",-122.712478637695,Third Street AleWorks BrewPub,False,$$,3.5,605,
579,Breakfast & Brunch,American (New),,,38.4473828767318,"Santa Rosa, CA",-122.700943968172,Dierk's Midtown Cafe,False,$$,4.0,217,
580,Delis,Diners,,,38.4406473,"Santa Rosa, CA",-122.7132659,Mac's Deli & Cafe,False,$$,4.0,324,
581,Asian Fusion,Chinese,Vietnamese,,38.4592157222474,"Santa Rosa, CA",-122.718212207407,Goji Kitchen,False,$$,4.0,492,
582,French,,,,38.441317,"Santa Rosa, CA",-122.713752,Bistro 29,False,$$$,4.0,315,
583,Breakfast & Brunch,American (New),Bars,,38.4358099,"Santa Rosa, CA",-122.71886,Railroad Stop Bar & Kitchen,False,$$,3.5,135,
584,Japanese,Sushi Bars,,,38.442027,"Santa Rosa, CA",-122.7168689,Haku Sushi,False,$$,4.0,492,
585,Barbeque,Salad,Chicken Shop,,38.4282333993154,"Santa Rosa, CA",-122.740586515322,Red Bee BBQ,False,$,4.0,249,
586,Mexican,Venues & Event Spaces,,,38.43995,"Santa Rosa, CA",-122.71467,La Rosa Tequileria & Grille,False,$$,4.0,595,
587,Breakfast & Brunch,Mexican,Coffee & Tea,,30.2797094,"Austin, TX",-97.74192,Arturo's Underground Cafe,False,$,4.5,557,
588,American (New),Gluten-Free,Breakfast & Brunch,,30.3189735054924,"Austin, TX",-97.7391379775419,Picnik,False,$$,4.5,477,
589,Breakfast & Brunch,Coffee & Tea,Sandwiches,,30.30603,"Austin, TX",-97.74329,"Snooze, An A.M. Eatery",False,$$,4.0,667,
590,Bagels,Sandwiches,Breakfast & Brunch,,30.32317,"Austin, TX",-97.72758,Nervous Charlie's,False,$,4.0,154,
591,Modern European,French,German,,30.2789000355663,"Austin, TX",-97.7726416986868,Fabi + Rosi,False,$$,4.5,538,
592,Asian Fusion,Southern,,,30.33075,"Austin, TX",-97.74021,The Peached Tortilla,False,$$,4.5,607,
593,American (Traditional),Breakfast & Brunch,,,30.27937,"Austin, TX",-97.75999,Galaxy Cafe,False,$$,4.0,369,
594,Tex-Mex,Breakfast & Brunch,Cafes,,30.30803,"Austin, TX",-97.75047,Kerbey Lane Cafe - Central,False,$$,4.0,1185,
595,Food Trucks,Hawaiian,Poke,,30.3150060011223,"Austin, TX",-97.7411630688549,The Big Kahuna,False,$,4.5,399,
596,Indian,Seafood,Event Planning & Services,,30.279073,"Austin, TX",-97.74232,Clay Pit,False,$$,4.0,1387,
597,American (Traditional),Cocktail Bars,Venues & Event Spaces,,30.3151275,"Austin, TX",-97.7417583,Stinson's,False,$,4.0,169,
598,Mexican,,,,30.2916114,"Austin, TX",-97.734951,Taco Joint,False,$,4.5,374,
599,Vegetarian,Vegan,Breakfast & Brunch,,30.3216936764352,"Austin, TX",-97.7389393582665,Citizen Eatery,False,$$,4.0,386,
600,Italian,,,,30.30726,"Austin, TX",-97.75113,Olive & June,False,$$$,4.0,542,
601,Vegan,Beer Bar,Gastropubs,,30.2966658,"Austin, TX",-97.7676046,The Beer Plant,False,$$,4.0,323,
602,American (New),Breakfast & Brunch,,,30.277692,"Austin, TX",-97.771822,Magnolia Cafe,False,$$,3.5,800,
603,Coffee & Tea,Breakfast & Brunch,,,30.317377,"Austin, TX",-97.7406,Pacha,False,$,4.0,629,
604,Venues & Event Spaces,American (New),,,30.30606,"Austin, TX",-97.74975,Tiny Boxwoods,False,$$,3.5,139,
605,Caterers,Breakfast & Brunch,Tacos,,30.3104773946775,"Austin, TX",-97.7400862024725,Tacodeli,False,$,4.5,649,
606,Cafes,Coffee & Tea,Bakeries,,30.3322058641016,"Austin, TX",-97.7345593268946,Brentwood Social House,False,$,4.5,180,
607,Japanese,,,,30.29284,"Austin, TX",-97.7417399,Don Japanese Kitchen,False,$,4.5,172,
608,Tex-Mex,Mexican,,,30.2947120806306,"Austin, TX",-97.7843958519819,Hula Hut,False,$$,3.5,1390,
609,Pubs,French,Gastropubs,,30.2985538576336,"Austin, TX",-97.7409893637848,Hopfields,False,$$,4.0,435,
610,American (Traditional),Breakfast & Brunch,,,30.280623,"Austin, TX",-97.759015,Josephine House,False,$$,3.5,259,
611,Food Trucks,Burgers,,,30.3212704266421,"Austin, TX",-97.739480091546,Jewboy Burgers,False,$$,5.0,198,
612,Tex-Mex,Breakfast & Brunch,American (Traditional),,30.29122,"Austin, TX",-97.7415,Kerbey Lane Cafe - University,False,$$,3.5,784,
613,Noodles,,,,30.290535,"Austin, TX",-97.744756,Julie's Handmade Noodles,False,$,4.0,170,
614,Mediterranean,,,,30.2885622487397,"Austin, TX",-97.741684423978,CAVA,False,$$,4.5,68,
615,Italian,Wine Bars,,,30.3159319310134,"Austin, TX",-97.7336796197883,Mandola's Italian,False,$$,4.0,885,
616,Italian,,,,30.27786,"Austin, TX",-97.7729,68 Degrees Kitchen,False,$$,4.0,78,
617,Sandwiches,Cafes,Tacos,,30.30091,"Austin, TX",-97.7403,FoodHeads,False,$,4.5,512,
618,Sandwiches,Breakfast & Brunch,Burgers,,30.3190872591982,"Austin, TX",-97.7389053106308,Noble Sandwich,False,$$,4.0,503,
619,Mexican,,,,30.2801055908203,"Austin, TX",-97.7594833374023,Zocalo Café,False,$$,4.0,462,
620,Mexican,Breakfast & Brunch,,,30.316091,"Austin, TX",-97.74143,La Cocina de Consuelo,False,$,4.0,348,
621,Korean,Barbeque,,,30.3245593141276,"Austin, TX",-97.740055874205,Chi'Lantro,False,$,4.0,348,
622,American (Traditional),,,,30.2803621441126,"Austin, TX",-97.7590721100569,Jeffrey's,False,$$$$,4.0,281,
623,Mediterranean,Turkish,Greek,,30.3156905685777,"Austin, TX",-97.7335086383866,MezzeMe,False,$,4.5,266,
624,American (New),,,,30.2818694031,"Austin, TX",-97.7400357374344,The Carillon,False,$$$,4.5,274,
625,Tex-Mex,Mexican,,,30.28264,"Austin, TX",-97.74444,Kesos Tacos,False,$,4.0,115,
626,Breakfast & Brunch,Bars,American (Traditional),,30.29493,"Austin, TX",-97.78381,Abel's On the Lake,False,$$,2.5,553,
627,Sushi Bars,Gluten-Free,Japanese,,30.31067,"Austin, TX",-97.74,Uchiko,False,$$$$,4.5,1598,
628,Food Trucks,Korean,,,30.30093,"Austin, TX",-97.73895,Korean Komfort,False,$,4.0,138,
629,Hawaiian,,,,30.282849477862,"Austin, TX",-97.7417685091496,Poke Bay,False,$$,4.5,109,
630,Delis,Sandwiches,,,30.288094,"Austin, TX",-97.742851,Fricano's Deli,False,$,4.5,540,
631,Mexican,,,,30.295789,"Austin, TX",-97.7442669,Cabo Bob's Burritos,False,$,4.5,329,
632,Japanese,,,,30.28003,"Austin, TX",-97.7413399,Lavaca Teppan,False,$$,4.0,173,
633,Burgers,Beer Bar,,,43.5136638271034,"Sioux Falls, SD",-96.7532666835643,TapHouse 41,False,$$,4.5,213,
634,American (New),Coffee & Tea,Bars,,43.5498475519912,"Sioux Falls, SD",-96.7238033227539,Ode to Food and Drinks,False,$$,4.5,97,
635,Cafes,Bakeries,Breakfast & Brunch,,43.5435637,"Sioux Falls, SD",-96.7273982,Josiah's Coffee House & Cafe,False,$,4.5,182,
636,Diners,Breakfast & Brunch,,,43.54707,"Sioux Falls, SD",-96.72696,Phillips Avenue Diner,False,$$,4.0,258,
637,Coffee & Tea,Delis,Breakfast & Brunch,,43.543753,"Sioux Falls, SD",-96.726491,MB Haskett Delicatessen,False,$$,4.5,96,
638,Bars,American (Traditional),,,43.5300793,"Sioux Falls, SD",-96.7510322,Grille 26,False,$$,4.0,135,
639,Mexican,Specialty Food,,,43.5476849507245,"Sioux Falls, SD",-96.7143738269806,Tortilleria Hernandez,False,$,4.5,31,
640,Sandwiches,Salad,Beer Bar,,43.554123,"Sioux Falls, SD",-96.727947,Bread & Circus Sandwich Kitchen,False,$$,4.5,85,
641,Mediterranean,Vegetarian,,,43.5485083,"Sioux Falls, SD",-96.7222859,Sanaa's Gourmet Restaurant,False,$$,4.5,133,
642,Breweries,American (New),Beer Bar,,43.5487672690635,"Sioux Falls, SD",-96.721736108385,Monk's House of Ale Repute and Gandy Dancer Brew Works,False,$$,4.0,121,
643,American (New),Steakhouses,,,43.5444641113281,"Sioux Falls, SD",-96.7272186279297,Minervas Restaurant - Sioux Falls,False,$$$,4.0,175,
644,Cambodian,Chinese,Asian Fusion,,43.559762,"Sioux Falls, SD",-96.730881,Phnom Penh Restaurant Asian Cuisine,False,$$,4.5,131,
645,American (Traditional),Bars,,,43.54555,"Sioux Falls, SD",-96.72785,Parker's Bistro,False,$$$,4.0,74,
646,American (Traditional),Bars,,,43.54892,"Sioux Falls, SD",-96.72458,Falls Landing Restaurant,False,$$,4.0,20,
647,Breakfast & Brunch,,,,43.5147035,"Sioux Falls, SD",-96.7589311,The Original Pancake House,False,$$,4.5,107,
648,Mexican,,,,43.5387763977051,"Sioux Falls, SD",-96.730827331543,Giliberto's Mexican Taco Shop,False,$,4.0,81,
649,Diners,Breakfast & Brunch,Burgers,,43.55887,"Sioux Falls, SD",-96.75687,Rosie's Cafe,False,$,4.5,21,
650,Mexican,,,,43.54891,"Sioux Falls, SD",-96.71806,Jacky's Restaurant,False,$$,4.5,109,
651,Sushi Bars,Japanese,,,43.5459607804108,"Sioux Falls, SD",-96.7262868583202,Oshima,False,$$,4.5,54,
652,Cafes,,,,43.513637,"Sioux Falls, SD",-96.753213,All Day Café,False,$$,4.0,82,
653,American (New),,,,43.5484848,"Sioux Falls, SD",-96.722229,K Restaurant,False,$$$,4.5,8,
654,Sandwiches,,,,43.5458298,"Sioux Falls, SD",-96.7261124,Mama's Phried and Phillys,False,$,5.0,40,
655,Breakfast & Brunch,Desserts,American (Traditional),,43.5485488399281,"Sioux Falls, SD",-96.7266855016351,Grille 100,False,$$,4.0,7,
656,Barbeque,,,,43.5151218766292,"Sioux Falls, SD",-96.7315866795625,Big Rig BBQ,False,$,4.0,29,
657,Pizza,American (Traditional),,,43.5448570251465,"Sioux Falls, SD",-96.7278518676758,"MacKenzie River Pizza, Grill & Pub",False,$$,3.5,132,
658,Sandwiches,Steakhouses,,,43.5306821,"Sioux Falls, SD",-96.7510426,Pickle Barrel,False,$,4.5,24,
659,Vietnamese,,,,43.54421,"Sioux Falls, SD",-96.74191,Pho Quynh,False,$,3.5,61,
660,Ethiopian,,,,43.5458153902777,"Sioux Falls, SD",-96.7608984371156,Lalibela,False,$,4.5,43,
661,American (New),Sushi Bars,,,43.548,"Sioux Falls, SD",-96.724375,Crave American Kitchen & Sushi Bar,False,$$,3.0,54,
662,Chinese,,,,43.52103,"Sioux Falls, SD",-96.732254,Golden Bowl,False,$$,4.0,25,
663,Burgers,Sandwiches,Salad,,43.5301126,"Sioux Falls, SD",-96.7311451,Kaladi's,False,$$,4.0,31,
664,Bars,American (New),,,43.5454341,"Sioux Falls, SD",-96.7262689,Crawford's Bar & Grill,False,$$,3.5,77,
665,Mexican,,,,43.5448249,"Sioux Falls, SD",-96.7271833,Mama's Ladas,False,$$,4.0,81,
666,Mexican,,,,43.5383777,"Sioux Falls, SD",-96.7314249,Azteca Family Mexican Restaurant,False,$$,4.5,52,
667,Burgers,Pubs,,,43.54389,"Sioux Falls, SD",-96.72723,JL Beers,False,$$,4.0,170,
668,Cheesesteaks,Vegetarian,Salad,,43.5145430870256,"Sioux Falls, SD",-96.7497197183108,PepperJax Grill,False,$,4.5,36,
669,Chicken Wings,Southern,Comfort Food,,43.53146,"Sioux Falls, SD",-96.7317,Slim Chickens,False,$,3.5,22,
670,Casinos,American (Traditional),,,43.51522,"Sioux Falls, SD",-96.73806,Gregg's Substation And Casino,False,$,5.0,16,
671,Japanese,Sushi Bars,,,43.54278,"Sioux Falls, SD",-96.72723,Sushi-Masa Japanese Restaurant,False,$$,4.0,54,
672,Bars,American (Traditional),,,43.54629,"Sioux Falls, SD",-96.726376,Pave,False,$$,3.0,20,
673,Pubs,American (Traditional),,,43.543655,"Sioux Falls, SD",-96.724361,TommyJack's Pub,False,$,4.5,15,
674,Mexican,,,,43.54833,"Sioux Falls, SD",-96.7153,Nikki's La Mexicana,False,$,4.5,31,
675,Cafes,,,,43.51537,"Sioux Falls, SD",-96.74077,Camille's Sidewalk Cafe,False,$,4.0,20,
676,Hawaiian,Poke,,,21.3913588368539,"Pearl City, HI",-157.971238978207,Poke On Da Run,False,$$,4.5,471,
677,Breakfast & Brunch,Sandwiches,,,21.39199,"Pearl City, HI",-157.96528,Button Up Cafe,False,$$,4.5,679,
678,Pizza,,,,21.39651,"Pearl City, HI",-157.97741,The Pizza Press,False,$$,4.0,158,
679,Barbeque,Seafood,Japanese,,21.3891199,"Pearl City, HI",-157.95397,Spicy Ahi & BBQ,False,$$,4.5,280,
680,Japanese,Fast Food,,,21.3992000425825,"Pearl City, HI",-157.974091916716,Matsuzaka-Tei - Pearl City,False,$,4.0,239,
681,Steakhouses,Sports Bars,American (Traditional),,21.389015,"Pearl City, HI",-157.95364,Cattle Company Steakhouse,False,$$,3.5,1329,
682,American (New),,,,21.392954,"Pearl City, HI",-157.984067,The Pearl,False,$$,5.0,22,
683,Korean,,,,21.3940561197112,"Pearl City, HI",-157.96901506813,Sadie's BBQ Inn,False,$$,4.5,267,
684,Japanese,Hot Pot,,,21.400193,"Pearl City, HI",-157.975407,Rokaru Shabu Shabu,False,$$,4.0,237,
685,Laotian,Thai,,,21.392526,"Pearl City, HI",-157.967674,Thai Lao Restaurant,False,$$,4.5,281,
686,Cafes,,,,21.39651,"Pearl City, HI",-157.97741,Up Roll Cafe,False,$$,3.5,39,
687,Cafes,Sandwiches,Macarons,,21.4002751326488,"Pearl City, HI",-157.975268143378,La Tour Cafe,False,$$,4.0,534,
688,Ramen,Noodles,,,21.38098,"Pearl City, HI",-157.94162,Build Your Own Ramen,False,$$,4.5,144,
689,Hawaiian,,,,21.38461013922,"Pearl City, HI",-157.945252689549,Kehau's Kitchen,False,$$,4.5,397,
690,Ramen,Noodles,,,21.3893482252093,"Pearl City, HI",-157.9542758379,IchiBen,False,$$,4.0,309,
691,Chicken Wings,Korean,,,21.3859144193747,"Pearl City, HI",-157.950455638074,Vons Chicken,False,$$,4.5,94,
692,Japanese,Asian Fusion,,,21.388116,"Pearl City, HI",-157.954299,Gyotaku Japanese Restaurant - Pearl City,False,$$,3.5,482,
693,Chicken Wings,American (Traditional),Sports Bars,,21.3963240102158,"Pearl City, HI",-157.975991719638,Buffalo Wild Wings,False,$$,2.5,842,
694,Japanese,Hot Pot,,,21.3845219518553,"Pearl City, HI",-157.945547103882,Ichiriki,False,$$,4.0,728,
695,Sushi Bars,Izakaya,Bars,,21.38098,"Pearl City, HI",-157.94162,Izakaya Kei,False,$$,4.0,276,
696,Delis,Hawaiian,,,21.39298,"Pearl City, HI",-157.970472,Miki's,False,$,3.5,145,
697,Hawaiian,,,,21.4249362945557,"Pearl City, HI",-157.951919555664,Palisades Drive Inn,False,$,4.5,67,
698,Ramen,Noodles,Soup,,21.39941,"Pearl City, HI",-157.97377,Daiichi Ramen - Pearl City,False,$,4.0,322,
699,Burgers,Diners,,,21.3964475,"Pearl City, HI",-157.97729,Johnny Rockets,False,$$,3.0,267,
700,Italian,,,,21.381,"Pearl City, HI",-157.942085,Ricado's Italian Restaurant,False,$$,4.0,352,
701,Southern,Food Trucks,Barbeque,,21.394945732273,"Pearl City, HI",-157.975924126804,Pua'a BBQ Co.,False,$$,3.5,59,
702,Asian Fusion,Noodles,Breakfast & Brunch,,21.39252,"Pearl City, HI",-157.94958,Newtown Asian Grindz,False,$,4.0,60,
703,Sushi Bars,,,,21.381708,"Pearl City, HI",-157.93995,California Beach Rock N' Sushi,False,$$,4.5,162,
704,Tex-Mex,American (Traditional),Bars,,21.3824287448384,"Pearl City, HI",-157.940460919049,Chili's,False,$$,3.5,582,
705,Mexican,,,,21.39651,"Pearl City, HI",-157.97741,Maui Tacos,False,$$,3.0,28,
706,Italian,,,,21.3894910723778,"Pearl City, HI",-157.951325642853,Paesano Ristorante,False,$$,3.5,328,
707,Korean,,,,21.38465,"Pearl City, HI",-157.94481,Kimchee 7 Restaurant,False,$$,4.0,375,
708,Breakfast & Brunch,Diners,Waffles,,21.3890199470029,"Pearl City, HI",-157.952494388053,Pancakes & Waffles BLD Waimalu,False,$$,4.0,482,
709,Pizza,Italian,Sandwiches,,21.3836176446243,"Pearl City, HI",-157.945524654411,Bravo Restaurant,False,$$,3.5,1034,
710,Distilleries,Historical Tours,Pizza,,21.457413,"Pearl City, HI",-158.058758,Kō Hana Distillers,False,$$,5.0,159,
711,Japanese,Sushi Bars,,,21.394321,"Pearl City, HI",-157.968872,Yoon's Place,False,$,4.5,24,
712,Pizza,Vegan,Gluten-Free,,21.384876,"Pearl City, HI",-157.942087,Pieology Pizzeria,False,$$,3.5,441,
713,Diners,Fast Food,Comfort Food,,21.3932294600981,"Pearl City, HI",-157.967434785462,Zippy's Pearl City,False,$$,3.5,282,
714,Hawaiian,Noodles,Japanese,,21.3859600273668,"Pearl City, HI",-157.950206226317,Shiro's Saimin Haven,False,$,4.0,657,
715,Japanese Curry,,,,21.3810757493773,"Pearl City, HI",-157.941705673681,Curry House CoCo Ichibanya,False,$,4.0,455,
716,Chinese,,,,21.3943334335183,"Pearl City, HI",-157.968969961446,House of Dragon Seafood Restaurant,False,$$,3.5,105,
717,Food Trucks,Barbeque,Sandwiches,,21.49537,"Pearl City, HI",-158.03003,Sunset Smokehouse,False,$$,5.0,123,
718,Thai,Noodles,Chicken Wings,,21.38098,"Pearl City, HI",-157.94162,Thai Bistro Suksabay,False,$$,4.5,138,
719,Ramen,Noodles,Seafood,,21.382806,"Pearl City, HI",-157.940184,AGU Ramen - Pearlridge Center,False,$$,4.0,241,
720,Japanese,Sushi Bars,,,21.3806756771659,"Pearl City, HI",-157.942712284131,Tadashi Restaurant,False,$$,3.5,351,
721,Mexican,,,,34.160466,"Glendale, CA",-118.264551,Brick & Flour,False,$,4.0,1006,
722,French,Breakfast & Brunch,Wine Bars,,34.1465013,"Glendale, CA",-118.2469332,Creamy Spoon French Bistro,False,$$,5.0,353,
723,Bakeries,Cuban,Cafes,,34.15039756162,"Glendale, CA",-118.25546929797,Porto's Bakery & Cafe,False,$,4.5,8166,
724,American (New),Breakfast & Brunch,Cocktail Bars,,34.1451088111189,"Glendale, CA",-118.25509250164,GRANVILLE,False,$$,4.0,2117,
725,Shanghainese,Dim Sum,Taiwanese,,34.1434651,"Glendale, CA",-118.2560737,Din Tai Fung,False,$$,4.0,3087,
726,Diners,American (Traditional),Breakfast & Brunch,,34.14223,"Glendale, CA",-118.25671,Foxy's Restaurant,False,$$,4.0,1972,
727,Chicken Shop,American (Traditional),,,34.1429336112168,"Glendale, CA",-118.239794187248,ROCKBIRD,False,$$,4.5,404,
728,Middle Eastern,Persian/Iranian,Armenian,,34.14659,"Glendale, CA",-118.25335,Raffi's Place,False,$$,4.5,3905,
729,American (New),,,,34.1575660705566,"Glendale, CA",-118.258354187012,Central Grille,False,$$,4.0,393,
730,Burgers,Mexican,Breakfast & Brunch,,34.150048,"Glendale, CA",-118.256291,The Great White Hut,False,$,4.0,743,
731,Peruvian,,,,34.1378135681152,"Glendale, CA",-118.254585266113,Mamita Peruvian Restaurant,False,$$,4.0,930,
732,American (New),Breakfast & Brunch,,,34.1428539,"Glendale, CA",-118.2547951,Eggslut,False,$$,3.5,562,
733,Seafood,Cajun/Creole,,,34.1585256065118,"Glendale, CA",-118.2576912269,Crab Avenue,False,$$,4.0,625,
734,Chicken Shop,American (Traditional),Cafes,,34.15352,"Glendale, CA",-118.22844,Trap Fried Chicken,False,$$,4.0,339,
735,Cafes,Breakfast & Brunch,Pizza,,34.16521,"Glendale, CA",-118.28671,XO Cafe,False,$,4.5,182,
736,Gastropubs,Burgers,Bars,,34.12384,"Glendale, CA",-118.26868,The Morrison,False,$$,4.5,4010,
737,Seafood Markets,Seafood,,,34.156819,"Glendale, CA",-118.241054,Fish King,False,$$,4.5,776,
738,Delis,Grocery,,,34.146236,"Glendale, CA",-118.245647,Mario's Italian Deli & Market,False,$,4.5,994,
739,Middle Eastern,Mediterranean,Wine Bars,,34.150218963623,"Glendale, CA",-118.254592895508,Carousel Restaurant,False,$$,4.0,1009,
740,Cafes,Eatertainment,American (Traditional),,34.1232631115639,"Glendale, CA",-118.254601815275,Game Haus Cafe,False,$,4.5,517,
741,Mediterranean,Greek,Vegan,,34.14668,"Glendale, CA",-118.23995,Lemon Zest Cafe,False,$$,4.5,497,
742,Asian Fusion,,,,34.14752,"Glendale, CA",-118.2548251,Gam Tu Bop,False,$,4.5,327,
743,Coffee & Tea,Breakfast & Brunch,,,34.147031,"Glendale, CA",-118.254075,Urartu Coffee,False,$,4.5,354,
744,Cafes,American (New),Desserts,,34.1481924274608,"Glendale, CA",-118.255874386404,Heritage Eatery,False,$$,5.0,269,
745,Mexican,,,,34.147148,"Glendale, CA",-118.263832,Tacos Cancun,False,$,4.5,165,
746,Vietnamese,,,,34.1460760673927,"Glendale, CA",-118.247027337267,Glendale Pho Co.,False,$,4.0,891,
747,American (New),Bakeries,,,34.14877,"Glendale, CA",-118.25602,Plate & Petal,False,$$,4.5,504,
748,Italian,,,,34.1436429198616,"Glendale, CA",-118.256382755119,Trattoria Amici,False,$$,4.0,1196,
749,Ramen,,,,34.1471167,"Glendale, CA",-118.2548151,Kopan Ramen - Glendale,False,$$,4.5,864,
750,American (Traditional),Burgers,,,34.1531191,"Glendale, CA",-118.2614332,Everest,False,$,3.5,367,
751,Gastropubs,Beer Bar,Pizza,,34.158146864796,"Glendale, CA",-118.249086524857,We're Pouring,False,$$,4.5,263,
752,Tapas/Small Plates,Wine Bars,American (New),,34.1437809,"Glendale, CA",-118.2553149,Bacari GDL,False,$$,4.5,585,
753,Hot Pot,Japanese,Seafood,,34.1461,"Glendale, CA",-118.252891,Joon Shabu Shabu,False,$$,4.5,1039,
754,Ramen,,,,34.1411234,"Glendale, CA",-118.2579849,R101 Ramen,False,$$,4.0,607,
755,Middle Eastern,Mediterranean,Armenian,,34.1649318,"Glendale, CA",-118.2807983,Cafe Bravo,False,$$,4.0,799,
756,Vietnamese,Sandwiches,Noodles,,34.165173838165,"Glendale, CA",-118.286616504192,Pho Hot,False,$,4.5,360,
757,Hawaiian,Asian Fusion,Seafood,,34.1471977233887,"Glendale, CA",-118.25464630127,Poké Cafe,False,$$,4.5,584,
758,Burgers,Cocktail Bars,Venues & Event Spaces,,34.1486805826754,"Glendale, CA",-118.254721383632,Eden On Brand,False,$$,4.0,588,
759,Mediterranean,Hookah Bars,Desserts,,34.1357060550165,"Glendale, CA",-118.263380358233,The Atmosphere,False,$$,5.0,160,
760,Latin American,Peruvian,Seafood,,34.14921,"Glendale, CA",-118.25458,Lola's Peruvian Restaurant,False,$$,4.0,594,
761,Steakhouses,Bars,American (Traditional),,34.1427476339728,"Glendale, CA",-118.255254419442,Bourbon Steak,False,$$$,4.0,883,
762,Burgers,Asian Fusion,Mexican,,34.14222,"Glendale, CA",-118.2651,Toro Grillhouse,False,$,4.5,280,
763,Indian,,,,34.15062,"Glendale, CA",-118.25459,All India Cafe,False,$$,4.5,250,
764,Cocktail Bars,American (Traditional),Sandwiches,,34.14811,"Glendale, CA",-118.27222,The San Fernando,False,$$,4.5,161,
765,Mexican,,,,34.1724547453266,"Glendale, CA",-118.279430317197,Mi Corazon,False,$$,4.0,405,
766,Korean,,,,34.14293,"Glendale, CA",-118.23836,Kim's Kitchen,False,$$,4.0,393,
767,Breakfast & Brunch,Burgers,American (Traditional),,32.802139519804,"San Diego, CA",-117.140451600139,Maggie's Cafe,False,$$,4.5,731,
768,Hawaiian,Salad,Seafood,,32.801671968633,"San Diego, CA",-117.159088104705,Homestyle Hawaiian,False,$$,4.0,1508,
769,Korean,,,,32.81423,"San Diego, CA",-117.15385,Woomiok,False,$$,4.0,46,
770,Buffets,Seafood,,,32.770969,"San Diego, CA",-117.132264,100s Seafood Grill Buffet,False,$$,4.0,884,
771,Mexican,Breakfast & Brunch,,,32.79333,"San Diego, CA",-117.15598,California Burritos,False,$,4.5,700,
772,American (New),Breakfast & Brunch,,,32.7629341776073,"San Diego, CA",-117.134248119354,Cafe 21,False,$$,4.0,1818,
773,Chicken Shop,Korean,Beer Bar,,32.82051,"San Diego, CA",-117.15452,Cross Street Chicken and Beer,False,$$,4.5,930,
774,Modern European,Italian,Breakfast & Brunch,,32.763108,"San Diego, CA",-117.132134,Hanna's Gourmet,False,$$,4.5,607,
775,Thai,,,,32.7618085751424,"San Diego, CA",-117.146594524384,Bahn Thai,False,$,4.5,2084,
776,Kebab,Mediterranean,,,32.7706396244847,"San Diego, CA",-117.150259892633,The Kebab Shop,False,$,4.5,1173,
777,Hot Pot,Japanese,Korean,,32.8194299,"San Diego, CA",-117.17978,SHABUMi,False,$$,4.5,492,
778,Burgers,Pizza,American (Traditional),,32.768554,"San Diego, CA",-117.166117042992,STACKED Food Well Built - San Diego,False,$$,4.0,2191,
779,Burgers,Comfort Food,American (New),,32.766459,"San Diego, CA",-117.15427,Lazy Dog Restaurant & Bar,False,$$,4.0,1816,
780,Sandwiches,Salad,Breakfast & Brunch,,32.8092309008512,"San Diego, CA",-117.142369542328,CARVE,False,$$,4.5,167,
781,Steakhouses,Barbeque,American (Traditional),,32.770207,"San Diego, CA",-117.159508,Wood Ranch BBQ & Grill,False,$$,4.0,782,
782,Cafes,,,,32.8184352946717,"San Diego, CA",-117.149706058861,Lil' Farmers Cafe,False,$,4.0,310,
783,Seafood,,,,32.77048,"San Diego, CA",-117.14963,California Fish Grill,False,$$,4.5,444,
784,American (New),Vegetarian,Vegan,,32.768746,"San Diego, CA",-117.165327,True Food Kitchen,False,$$,4.0,2046,
785,Chinese,Noodles,Seafood,,32.81938,"San Diego, CA",-117.15574,Shan Xi Magic Kitchen,False,$$,4.0,1113,
786,Desserts,Salad,Burgers,,32.7627583919874,"San Diego, CA",-117.130453582822,Soda & Swine,False,$$,4.0,1538,
787,Noodles,,,,32.76077,"San Diego, CA",-117.13039,The Nood Bar,False,$$,4.5,55,
788,Breakfast & Brunch,Creperies,Waffles,,32.8152408361399,"San Diego, CA",-117.154552194347,The Original Pancake House,False,$$,3.5,1264,
789,Italian,Pizza,,,32.769016,"San Diego, CA",-117.164255,North Italia,False,$$,4.0,201,
790,Japanese,,,,32.81423,"San Diego, CA",-117.15385,Wa Dining OKAN,False,$$,4.5,978,
791,Filipino,,,,32.78538,"San Diego, CA",-117.17148,Olgas Food Place,False,$,4.5,69,
792,Vietnamese,,,,32.8178259166498,"San Diego, CA",-117.155763992829,Phuong Trang,False,$,4.0,1984,
793,Japanese,,,,32.814675691794,"San Diego, CA",-117.154462812708,Yokohama Yakitori Koubou,False,$$,4.0,546,
794,Korean,Barbeque,Buffets,,32.8203678917066,"San Diego, CA",-117.156053715344,Manna Korean BBQ,False,$$,4.0,2608,
795,Japanese,Sushi Bars,,,32.8014439,"San Diego, CA",-117.15881,Sushi Diner,False,$,4.0,1379,
796,Burgers,,,,32.7666491179614,"San Diego, CA",-117.158511928813,Shake Shack,False,$$,3.5,474,
797,Mexican,,,,32.7676040375976,"San Diego, CA",-117.165709049087,Blanco Tacos + Tequila,False,$$,4.5,162,
798,Mexican,Seafood,Breakfast & Brunch,,32.76179,"San Diego, CA",-117.14663,El Zarape,False,$,4.0,2570,
799,Ethiopian,Vegan,Vegetarian,,32.761872,"San Diego, CA",-117.146156,Muzita Abyssinian Bistro,False,$$,4.5,1677,
800,Seafood,,,,32.76684,"San Diego, CA",-117.15688,King's Fish House - Mission Valley,False,$$,4.0,922,
801,Laotian,Thai,Seafood,,32.8146899,"San Diego, CA",-117.1544739,Mekong Cuisine Lao and Thai,False,$$,4.5,394,
802,Cafes,Breakfast & Brunch,,,32.76567,"San Diego, CA",-117.16143,Jane's Kitchen,False,$,5.0,40,
803,Thai,,,,32.80389,"San Diego, CA",-117.13941,Thai Pepper Cuisine,False,$,4.5,774,
804,Bakeries,Coffee & Tea,Cafes,,32.80189,"San Diego, CA",-117.13953,Bear Buns Bakery,False,$,4.5,442,
805,American (Traditional),Delis,Sandwiches,,32.7753549,"San Diego, CA",-117.1540642,Grater Grilled Cheese,False,$$,4.0,568,
806,Bars,French,Breakfast & Brunch,,32.7626419067383,"San Diego, CA",-117.129760742188,Et Voilà French Bistro,False,$$,4.5,404,
807,Sandwiches,Bakeries,Coffee & Tea,,32.80129,"San Diego, CA",-117.158385,K Sandwiches,False,$,4.0,1497,
808,Bakeries,Sandwiches,Breakfast & Brunch,,32.7625788991028,"San Diego, CA",-117.130303611852,Blackmarket Bakery,False,$$,4.5,318,
809,Breakfast & Brunch,Cafes,American (Traditional),,32.7691249,"San Diego, CA",-117.14399,The Broken Yolk Cafe,False,$$,3.0,969,
810,Pizza,Burgers,,,32.76077,"San Diego, CA",-117.13039,The Friendly,False,$,4.5,352,
811,Ramen,Noodles,,,32.8196793,"San Diego, CA",-117.1499863,Nishiki Ramen,False,$$,4.0,1389,
812,Vegetarian,Bars,American (New),,32.76855,"San Diego, CA",-117.1484,Yard House,False,$$,4.0,748,
813,Creperies,Desserts,Waffles,,32.814491489443,"San Diego, CA",-117.15395450592,Cafe Hue,False,$,4.0,1044,
814,American (New),Desserts,,,32.769181,"San Diego, CA",-117.1656,The Cheesecake Factory,False,$$,3.0,1641,
815,American (New),Bars,Breakfast & Brunch,,32.7613947540522,"San Diego, CA",-117.146333679557,Madison,False,$$,4.0,658,
816,Southern,Waffles,Cocktail Bars,,44.9497081,"St. Paul, MN",-93.0887875,Handsome Hog,False,$$,4.0,331,
817,Coffee & Tea,Breakfast & Brunch,Creperies,,44.9411851,"St. Paul, MN",-93.1077381,Cafe Astoria,False,$,4.5,222,
818,American (New),Cocktail Bars,,,44.94236,"St. Paul, MN",-93.1058,Parlour Bar St. Paul,False,$$,4.0,93,
819,Bakeries,Breakfast & Brunch,Cafes,,44.9509974383045,"St. Paul, MN",-93.0888698616723,The Buttered Tin,False,$$,4.0,501,
820,Italian,,,,44.9393077,"St. Paul, MN",-93.1103101,DeGidio's Restaurant & Bar,False,$$,4.5,195,
821,Cafes,Breakfast & Brunch,French,,44.946434,"St. Paul, MN",-93.1220856,The French Hen Café,False,$$,4.0,201,
822,Southern,Desserts,Burgers,,44.9467049,"St. Paul, MN",-93.1223456,Revival - St. Paul,False,$$,4.0,397,
823,American (New),Gastropubs,,,44.9462471008301,"St. Paul, MN",-93.1209945678711,The Happy Gnome,False,$$,4.0,704,
824,Italian,,,,44.92668,"St. Paul, MN",-93.13338,Mucci's Italian,False,$$,4.5,197,
825,Italian,,,,44.9398212560972,"St. Paul, MN",-93.1332063531045,Red Rabbit - St. Paul,False,$$,4.5,65,
826,Burgers,Wine Bars,American (New),,44.9467106,"St. Paul, MN",-93.1167558,Red Cow - Saint Paul,False,$$,4.0,530,
827,American (New),Steakhouses,Burgers,,44.9498066485407,"St. Paul, MN",-93.0860497802496,Saint Dinette,False,$$,4.0,237,
828,Comfort Food,Bars,Venues & Event Spaces,,44.945,"St. Paul, MN",-93.09419,Gray Duck Tavern,False,$$,4.0,140,
829,Italian,Pizza,,,44.94389,"St. Paul, MN",-93.10413,Cossetta Alimentari,False,$$,4.0,706,
830,French,,,,44.9463281,"St. Paul, MN",-93.0965879,Meritage,False,$$$,4.0,359,
831,Southern,Caribbean,,,44.94027,"St. Paul, MN",-93.13284,Brasa Rotisserie,False,$$,4.0,371,
832,Thai,Vegan,Gluten-Free,,44.955467,"St. Paul, MN",-93.118217,Thai Garden,False,$,4.5,196,
833,Seafood,,,,44.950323,"St. Paul, MN",-93.085635,Octo Fish Bar,False,$$,4.0,164,
834,Russian,Bars,Breakfast & Brunch,,44.946659,"St. Paul, MN",-93.115617,Moscow On The Hill,False,$$,4.0,349,
835,Mexican,,,,44.935295,"St. Paul, MN",-93.116368,Pajarito,False,$$,4.0,165,
836,African,Mediterranean,,,44.947266,"St. Paul, MN",-93.096493,Afro Deli & Grill - Saint Paul,False,$,4.5,117,
837,Breweries,German,,,44.9383265439193,"St. Paul, MN",-93.1094948429222,Waldmann Brewery & Wurstery,False,$$,4.0,65,
838,Sushi Bars,Japanese,,,44.949265,"St. Paul, MN",-93.083558,Kyatchi,False,$$,4.5,60,
839,Pizza,Desserts,,,44.9438301,"St. Paul, MN",-93.1040489,Pasticceria,False,$$,5.0,25,
840,Venues & Event Spaces,American (New),Cocktail Bars,,44.943686,"St. Paul, MN",-93.116572,The Commodore Bar & Restaurant,False,$$$,3.5,119,
841,Mexican,Fast Food,,,44.9237750060073,"St. Paul, MN",-93.1327483803034,Tavial Grill,False,$,4.5,194,
842,Burgers,Diners,,,44.951134,"St. Paul, MN",-93.094207,Keys Cafe & Bakery,False,$$,4.0,115,
843,American (New),Bars,Breakfast & Brunch,,44.9438434,"St. Paul, MN",-93.09816,Herbie's On the Park,False,$$,3.5,76,
844,Comfort Food,Cafeteria,Pizza,,44.939645,"St. Paul, MN",-93.136043,Cafe Latté,False,$$,4.0,520,
845,Bakeries,French,Vietnamese,,44.9560546875,"St. Paul, MN",-93.1309967041016,Trung Nam French Bakery,False,$,4.5,198,
846,Italian,,,,44.9450907,"St. Paul, MN",-93.095166,Pazzaluna,False,$$$,3.5,280,
847,Diners,Salad,Sandwiches,,44.947351,"St. Paul, MN",-93.098111,Mickey's Diner,False,$,3.5,370,
848,Cafes,,,,44.939039,"St. Paul, MN",-93.099814,red river kitchen,False,$$,4.0,20,
849,American (Traditional),Breakfast & Brunch,,,44.9448127746582,"St. Paul, MN",-93.0959777832031,The St. Paul Grill,False,$$$,4.0,229,
850,American (New),Lounges,,,44.95013,"St. Paul, MN",-93.0882,PUBLIC Kitchen + Bar,False,$$,3.5,227,
851,Cambodian,Desserts,Laotian,,44.95546,"St. Paul, MN",-93.11943,Cheng Heng Restaurant,False,$,4.0,200,
852,Halal,Middle Eastern,Kebab,,44.9396915,"St. Paul, MN",-93.0884771,Babani's Kurdish Restaurant,False,$$,4.5,112,
853,American (Traditional),Breakfast & Brunch,Beer Bar,,44.944549,"St. Paul, MN",-93.092708,Citizen,False,$$$,3.5,40,
854,Steakhouses,,,,44.9366989,"St. Paul, MN",-93.1137619,Mancini's Char House,False,$$$,4.0,196,
855,Vietnamese,,,,44.9554681020232,"St. Paul, MN",-93.1297714405111,iPho by Saigon,False,$,4.0,355,
856,Pubs,Irish,,,44.9444272241105,"St. Paul, MN",-93.1032395243927,The Liffey,False,$$,3.5,141,
857,Pizza,Bars,,,44.9513,"St. Paul, MN",-93.09444,Black Sheep Coal Fired Pizza,False,$$,4.0,257,
858,Mexican,Bars,,,44.929967,"St. Paul, MN",-93.077473,El Burrito Mercado,False,$,4.0,212,
859,American (New),Wine Bars,Burgers,,44.946387,"St. Paul, MN",-93.115846,WA Frost And Company,False,$$$,3.5,406,
860,Italian,,,,44.9462432861328,"St. Paul, MN",-93.1193084716797,La Grolla,False,$$,3.5,261,
861,Southern,Breakfast & Brunch,American (Traditional),,32.78876,"Charleston, SC",-79.9469,Hominy Grill,False,$$,4.0,2338,
862,Southern,Middle Eastern,American (New),,32.8100999827238,"Charleston, SC",-79.9479653404754,Butcher & Bee,False,$$,4.5,605,
863,Bars,American (Traditional),,,32.81136,"Charleston, SC",-79.94937,Tattooed Moose,False,$$,4.5,849,
864,Barbeque,Beer Bar,,,32.783829,"Charleston, SC",-79.997939,Swig & Swine,False,$$,4.5,1082,
865,Cocktail Bars,American (New),Seafood,,32.79114,"Charleston, SC",-79.94044,Prohibition,False,$$,4.0,696,
866,American (New),,,,32.7894776590572,"Charleston, SC",-79.946836,R Kitchen,False,$$,4.5,313,
867,Seafood,Tapas/Small Plates,,,32.78972,"Charleston, SC",-79.94229,Sorghum & Salt,False,$$,4.5,165,
868,Breakfast & Brunch,Cafes,American (Traditional),,32.790714,"Charleston, SC",-79.943183,Five Loaves Cafe,False,$$,4.5,519,
869,American (New),,,,32.8098941730209,"Charleston, SC",-79.9473415428528,Edmund's Oast Restaurant,False,$$,4.5,532,
870,Barbeque,,,,32.8087615966797,"Charleston, SC",-79.9465637207031,Lewis Barbecue,False,$$,4.5,613,
871,Cafes,Sandwiches,Soup,,32.7841457,"Charleston, SC",-79.9424016,Persimmon Cafe Sandwich Shop,False,$,4.5,494,
872,Seafood,Sandwiches,,,32.7927,"Charleston, SC",-79.94019,The Ordinary,False,$$$,4.5,457,
873,American (Traditional),Salad,Cocktail Bars,,32.798847780913,"Charleston, SC",-79.9466349579489,Little Jack's Tavern,False,$$,4.0,200,
874,Asian Fusion,Japanese,Bars,,32.7905,"Charleston, SC",-79.947139,Xiao Bao Biscuit,False,$$,4.0,494,
875,Southern,Seafood,,,32.7983761,"Charleston, SC",-79.9459025,Leon's Fine Poultry and Oysters,False,$$,4.0,610,
876,Southern,Salad,Sandwiches,,32.78385,"Charleston, SC",-79.99813,The Glass Onion,False,$$,4.0,378,
877,Vietnamese,Sandwiches,Asian Fusion,,32.788926,"Charleston, SC",-79.950462,Bon Banh Mi,False,$,4.5,284,
878,Barbeque,,,,32.8034426486426,"Charleston, SC",-79.951207,Rodney Scott's BBQ,False,$$,4.0,351,
879,American (New),Breakfast & Brunch,Seafood,,32.80304,"Charleston, SC",-79.9532399,The Park Cafe,False,$$,4.5,308,
880,Tapas Bars,Cocktail Bars,Tapas/Small Plates,,32.795286,"Charleston, SC",-79.942752,Barsa,False,$$,4.5,246,
881,Coffee & Tea,"Beer, Wine & Spirits",American (New),,32.795521,"Charleston, SC",-79.954358,Harold's Cabin,False,$$,4.5,147,
882,Italian,,,,32.79166,"Charleston, SC",-79.939796,Indaco,False,$$,4.0,324,
883,Soul Food,Southern,Diners,,32.80959,"Charleston, SC",-79.94544,Martha Lou's Kitchen,False,$$,4.0,328,
884,Vegan,Breakfast & Brunch,Sandwiches,,32.787506,"Charleston, SC",-79.950728,Gnome Cafe,False,$$,4.5,209,
885,Seafood,Southern,Soul Food,,32.7923355102539,"Charleston, SC",-79.9502029418945,Nana's Seafood & Soul,False,$$,4.0,97,
886,Southern,Mediterranean,Cocktail Bars,,32.792016606053,"Charleston, SC",-79.9409609416923,The Grocery,False,$$$,4.0,324,
887,Food Court,,,,32.81668,"Charleston, SC",-79.953081,Workshop,False,$$,4.5,109,
888,American (New),,,,32.779731,"Charleston, SC",-79.939758,Circa 1886 Restaurant,False,$$$,4.5,210,
889,Burgers,Diners,American (New),,32.79147,"Charleston, SC",-79.94083,HoM Charleston,False,$$,4.0,230,
890,French,Wine Bars,,,32.7928,"Charleston, SC",-79.95277,Purlieu,False,$$$,4.5,48,
891,Italian,,,,32.7923316955566,"Charleston, SC",-79.945671081543,Trattoria Lucca,False,$$$,4.5,166,
892,Caribbean,Burgers,,,32.78927,"Charleston, SC",-79.94718,Fuel,False,$$,3.5,442,
893,American (New),Burgers,Breakfast & Brunch,,32.812743,"Charleston, SC",-79.954526,Rutledge Cab Co.,False,$$,4.0,370,
894,Sandwiches,Cafes,Breakfast & Brunch,,32.78222,"Charleston, SC",-79.94162,60 Bull Cafe,False,$$,4.5,62,
895,Chinese,,,,32.762024,"Charleston, SC",-79.9869752,kwei fei,False,$$,4.0,34,
896,Mexican,Cocktail Bars,,,32.80315,"Charleston, SC",-79.941472,Taco Boy,False,$$,4.0,559,
897,Bars,American (Traditional),,,32.8022117,"Charleston, SC",-79.9528985,Moe's Crosstown Tavern,False,$,4.5,151,
898,Seafood,Steakhouses,Southern,,32.76535,"Charleston, SC",-79.97482,Charleston Crab House,False,$$,3.5,289,
899,Barbeque,Bars,Sandwiches,,32.809238656356,"Charleston, SC",-79.9465137238627,Home Team BBQ,False,$$,4.0,142,
900,Italian,Cocktail Bars,Pizza,,32.7961543,"Charleston, SC",-79.943691,Ristorante Juliet,False,$$,4.5,83,
901,Breakfast & Brunch,Pop-Up Restaurants,Coffee & Tea,,32.79275,"Charleston, SC",-79.94998,Daps Breakfast & Imbibe,False,$$,4.0,67,
902,Burgers,Pizza,,,32.7934168978838,"Charleston, SC",-79.948925351075,Dellz Uptown,False,$$,4.5,254,
903,Juice Bars & Smoothies,Acai Bowls,Sandwiches,,32.7987949999999,"Charleston, SC",-79.9509290343945,Huriyali,False,$$,4.5,79,
904,Smokehouse,Salad,Chicken Wings,,32.7750757,"Charleston, SC",-79.9738954,Black Wood Smokehouse,False,$$,4.0,61,
905,Pizza,,,,32.79872,"Charleston, SC",-79.95101,Uneeda Sicilian,False,$,4.5,69,
906,Cafes,American (Traditional),Breakfast & Brunch,,33.29327,"Gilbert, AZ",-111.77356,Henhouse Cafe,False,$,4.0,506,
907,Tex-Mex,Tacos,,,33.306105,"Gilbert, AZ",-111.74874,Rusty Taco,False,$,4.0,42,
908,American (Traditional),Breakfast & Brunch,,,33.2972051217972,"Gilbert, AZ",-111.748242509592,Egg N' Joe,False,$$,4.0,448,
909,Seafood,Southern,Fish & Chips,,33.3042699,"Gilbert, AZ",-111.757415,High Tide Seafood Bar & Grill,False,$$,4.0,828,
910,Breakfast & Brunch,Cafes,American (Traditional),,33.3054801,"Gilbert, AZ",-111.7553751,First Watch,False,$$,4.0,126,
911,Mexican,Seafood,,,33.3043070495252,"Gilbert, AZ",-111.757547979251,Pescado Borracho,False,$$,4.0,263,
912,New Mexican Cuisine,,,,33.29375,"Gilbert, AZ",-111.77365,New Mexican Grill,False,$,4.0,442,
913,Hawaiian,Barbeque,,,33.2969638600812,"Gilbert, AZ",-111.746647784075,Big Island Hawaiian BBQ,False,$,4.5,160,
914,Burgers,Fast Food,,,33.2847131845729,"Gilbert, AZ",-111.789295727804,Burgerim,False,$$,3.5,41,
915,Tacos,,,,33.32245,"Gilbert, AZ",-111.75608,Mucha Lucha Taco Shop,False,$,4.5,319,
916,Barbeque,Bars,,,33.32238,"Gilbert, AZ",-111.75718,Arizona BBQ Company,False,$$,4.5,217,
917,Bars,American (Traditional),,,33.303954,"Gilbert, AZ",-111.7888358,Copper Still Moonshine Grill,False,$$,4.0,284,
918,Mexican,Seafood,Bars,,33.30708,"Gilbert, AZ",-111.771005,Blue Adobe Santa Fe Grille,False,$$,4.5,159,
919,Steakhouses,Seafood,Wine Bars,,33.3065651,"Gilbert, AZ",-111.7484142,Firebirds Wood Fired Grill,False,$$,4.0,169,
920,Sandwiches,Salad,Breakfast & Brunch,,33.2858796,"Gilbert, AZ",-111.7886202,Wildflower - Rivulon,False,$$,4.0,54,
921,Italian,,,,33.3042322898859,"Gilbert, AZ",-111.75730536625,La Calabria Ristorante,False,$$,4.0,104,
